timestamp(unix),attitude_roll(radians),attitude_pitch(radians),attitude_yaw(radians),rotation_rate_x(radians/s),rotation_rate_y(radians/s),rotation_rate_z(radians/s),gravity_x(G),gravity_y(G),gravity_z(G),user_acc_x(G),user_acc_y(G),user_acc_z(G),magnetic_field_x(microteslas),magnetic_field_y(microteslas),magnetic_field_z(microteslas),latitude(degree),longitude(degree),altitude(meter),speed(m/s),course(degree),timestamp(unix)
1478477571.16,0.070001,0.495216,-0.067459,-0.080363,0.011012,-0.024293,0.061541,-0.475222,-0.877711,0.001905,0.004855,0.022273,-12.311096,-40.424171,-10.040186,,,,,,
1478477571.17,0.069976,0.494365,-0.067670,-0.077544,-0.021140,-0.022483,0.061548,-0.474473,-0.878116,0.000052,0.006990,0.010592,-12.297911,-40.419182,-10.076354,,,,,,
1478477571.18,0.069543,0.493557,-0.067789,-0.079768,-0.053383,-0.013385,0.061194,-0.473761,-0.878525,-0.005988,0.003317,0.002853,-12.297911,-40.419182,-10.076354,,,,,,
1478477571.19,0.068870,0.492429,-0.067870,-0.085900,-0.074454,-0.011892,0.060639,-0.472767,-0.879098,0.002776,0.003987,-0.007681,-12.287739,-40.407639,-10.134897,,,,,,
1478477571.20,0.068220,0.491473,-0.067918,-0.092369,-0.057198,-0.009824,0.060099,-0.471925,-0.879588,0.003103,0.004045,-0.009130,-12.287739,-40.407639,-10.134897,,,,,,
1478477571.21,0.067799,0.490539,-0.067901,-0.083719,-0.034946,-0.002716,0.059758,-0.471101,-0.880053,-0.003102,0.008089,-0.008650,-12.291423,-40.389740,-10.201562,,,,,,
1478477571.22,0.067497,0.489986,-0.067952,-0.038324,-0.027184,-0.010777,0.059510,-0.470614,-0.880330,-0.003724,0.009127,-0.010630,-12.291423,-40.389740,-10.201562,,,,,,
1478477571.23,0.067364,0.489099,-0.067913,-0.053804,0.008454,0.004344,0.059421,-0.469831,-0.880754,-0.002979,0.010435,-0.016478,-12.293716,-40.376190,-10.252295,,,,,,
1478477571.24,0.068574,0.488117,-0.067786,-0.093050,0.156706,-0.006084,0.060518,-0.468963,-0.881142,-0.010057,0.010284,-0.015343,-12.293716,-40.376190,-10.252295,,,,,,
1478477571.25,0.070536,0.487914,-0.067988,0.012855,0.177245,-0.019619,0.062254,-0.468784,-0.881116,-0.015821,0.024158,-0.001421,-12.282594,-40.356647,-10.342175,,,,,,
1478477571.26,0.071958,0.488764,-0.068340,0.096898,0.102335,-0.022047,0.063478,-0.469535,-0.880629,-0.037996,0.022636,0.007124,-12.282594,-40.356647,-10.342175,,,,,,
1478477571.27,0.072971,0.489764,-0.068609,0.090751,0.084911,-0.013257,0.064336,-0.470417,-0.880096,-0.033269,-0.000454,-0.005585,-12.232393,-40.369118,-10.353005,,,,,,
1478477571.28,0.074185,0.490231,-0.068731,0.028552,0.119123,-0.008600,0.065387,-0.470829,-0.879798,-0.016315,0.004460,-0.010400,-12.232393,-40.369118,-10.353005,,,,,,
1478477571.29,0.075894,0.489864,-0.068800,-0.054051,0.174262,-0.007044,0.066904,-0.470506,-0.879857,-0.009409,0.007478,0.012593,-12.201713,-40.387390,-10.317894,,,,,,
1478477571.30,0.077696,0.489423,-0.068591,-0.099728,0.199875,0.001679,0.068506,-0.470116,-0.879942,-0.010843,0.003075,0.039640,-12.201713,-40.387390,-10.317894,,,,,,
1478477571.32,0.079357,0.488817,-0.068430,-0.118332,0.163913,-0.000434,0.069990,-0.469582,-0.880111,-0.008207,-0.002693,0.036269,-12.167187,-40.378189,-10.394394,,,,,,
1478477571.33,0.080519,0.488208,-0.068221,-0.101560,0.126911,-0.000791,0.071036,-0.469044,-0.880313,-0.008627,-0.004436,0.026706,-12.167187,-40.378189,-10.394394,,,,,,
1478477571.34,0.081366,0.487514,-0.068089,-0.069660,0.091266,-0.004632,0.071807,-0.468431,-0.880577,-0.007766,-0.000182,0.009300,-12.145177,-40.362488,-10.480754,,,,,,
1478477571.36,0.081135,0.487077,-0.067898,0.016036,-0.028159,-0.008726,0.071621,-0.468045,-0.880798,-0.012646,0.005185,-0.002305,-12.138058,-40.354393,-10.520095,,,,,,
1478477571.35,0.081200,0.486958,-0.067779,-0.016166,0.040893,-0.007904,0.071683,-0.467940,-0.880848,-0.012708,0.005080,-0.002254,-12.138058,-40.354393,-10.520095,,,,,,
1478477571.37,0.080176,0.487132,-0.067774,0.034019,-0.061511,-0.001765,0.070774,-0.468094,-0.880840,-0.011264,0.007873,-0.006809,-12.144900,-40.348057,-10.536492,,,,,,
1478477571.38,0.079229,0.487296,-0.067695,0.031529,-0.066470,-0.002940,0.069933,-0.468239,-0.880830,-0.007784,0.006889,-0.001372,-12.144900,-40.348057,-10.536492,,,,,,
1478477571.39,0.078297,0.487238,-0.067649,0.023960,-0.068984,-0.004229,0.069115,-0.468188,-0.880922,-0.006569,0.011660,-0.001753,-12.171889,-40.347813,-10.506235,,,,,,
1478477571.40,0.077613,0.487179,-0.067629,0.028696,-0.035557,-0.005948,0.068514,-0.468135,-0.880997,-0.006243,0.010768,-0.006882,-12.171889,-40.347813,-10.506235,,,,,,
1478477571.41,0.077540,0.487002,-0.067628,0.024297,0.029963,-0.007113,0.068457,-0.467979,-0.881084,-0.007086,0.009605,-0.017307,-12.190493,-40.345943,-10.491828,,,,,,
1478477571.42,0.078024,0.486561,-0.067611,0.002416,0.073096,-0.005700,0.068899,-0.467589,-0.881257,-0.008505,0.015013,-0.013351,-12.190493,-40.345943,-10.491828,,,,,,
1478477571.43,0.078363,0.486033,-0.067400,-0.015203,0.065477,0.003992,0.069217,-0.467122,-0.881479,-0.013004,0.017858,0.002924,-12.184789,-40.339851,-10.521839,,,,,,
1478477571.44,0.078808,0.485940,-0.067324,-0.003589,0.038336,0.004618,0.069613,-0.467040,-0.881492,-0.011355,0.010558,0.011802,-12.184789,-40.339851,-10.521839,,,,,,
1478477571.45,0.078711,0.486160,-0.067225,0.027283,-0.022139,0.012216,0.069519,-0.467234,-0.881396,-0.010391,0.010172,0.002261,-12.183345,-40.330627,-10.558809,,,,,,
1478477571.46,0.077558,0.486147,-0.066914,0.050426,-0.069015,0.013349,0.068503,-0.467223,-0.881482,-0.012443,0.010390,-0.020145,-12.183345,-40.330627,-10.558809,,,,,,
1478477571.47,0.076390,0.486291,-0.066606,0.071859,-0.066445,0.016074,0.067469,-0.467350,-0.881494,-0.009821,0.009007,-0.029700,-12.209739,-40.327908,-10.538700,,,,,,
1478477571.48,0.075251,0.486606,-0.066359,0.087082,-0.076238,0.014011,0.066453,-0.467629,-0.881424,-0.008439,0.012795,-0.021500,-12.209739,-40.327908,-10.538700,,,,,,
1478477571.49,0.074024,0.487092,-0.066064,0.092027,-0.066326,0.013922,0.065355,-0.468058,-0.881278,-0.012682,0.012324,-0.018319,-12.252412,-40.325912,-10.496715,,,,,,
1478477571.50,0.072493,0.487280,-0.065575,0.064085,-0.052859,0.007172,0.063999,-0.468224,-0.881289,-0.016285,0.012734,0.006487,-12.275768,-40.327152,-10.464615,,,,,,
1478477571.52,0.071765,0.487796,-0.065488,0.042778,-0.070363,0.014518,0.063341,-0.468680,-0.881094,-0.015626,0.013190,0.006293,-12.275768,-40.327152,-10.464615,,,,,,
1478477571.53,0.070503,0.488078,-0.065151,0.032763,-0.080368,0.019453,0.062219,-0.468929,-0.881042,-0.010156,0.007427,0.002105,-12.319079,-40.327225,-10.413329,,,,,,
1478477571.54,0.069515,0.488067,-0.064850,-0.003991,-0.067004,0.021151,0.061349,-0.468919,-0.881108,-0.003762,0.006151,0.003789,-12.319079,-40.327225,-10.413329,,,,,,
1478477571.55,0.068746,0.487740,-0.064513,-0.043359,-0.043751,0.021419,0.060682,-0.468631,-0.881307,-0.005079,0.009494,0.018820,-12.362791,-40.322445,-10.379963,,,,,,
1478477571.56,0.068078,0.487220,-0.064153,-0.075046,-0.031554,0.018304,0.060110,-0.468171,-0.881591,-0.007055,0.005464,0.027190,-12.362791,-40.322445,-10.379963,,,,,,
1478477571.57,0.067406,0.486801,-0.063785,-0.061227,-0.022773,0.012226,0.059530,-0.467801,-0.881827,-0.012411,0.001020,0.026404,-12.396753,-40.306343,-10.401965,,,,,,
1478477571.58,0.066885,0.486503,-0.063474,-0.039877,-0.009020,0.008627,0.059081,-0.467537,-0.881997,-0.012664,0.004342,0.021172,-12.396753,-40.306343,-10.401965,,,,,,
1478477571.59,0.066411,0.486146,-0.063193,-0.021040,0.002251,0.003809,0.058673,-0.467222,-0.882191,-0.015766,0.007215,0.006825,-12.428049,-40.291637,-10.421580,,,,,,
1478477571.60,0.066366,0.486078,-0.063089,0.015329,0.029740,-0.004710,0.058636,-0.467162,-0.882225,-0.011898,0.005248,-0.000358,-12.428049,-40.291637,-10.421580,,,,,,
1478477571.61,0.066937,0.486298,-0.063194,0.020176,0.052063,-0.008697,0.059132,-0.467357,-0.882089,-0.011830,0.007380,0.003168,-12.444115,-40.283119,-10.435336,,,,,,
1478477571.62,0.067320,0.486334,-0.063292,-0.001026,0.022233,-0.006046,0.059470,-0.467388,-0.882050,-0.018714,0.011730,0.006088,-12.444115,-40.283119,-10.435336,,,,,,
1478477571.63,0.067364,0.486222,-0.063283,-0.014780,0.007266,-0.001086,0.059512,-0.467289,-0.882099,-0.002505,0.007420,0.013981,-12.428629,-40.287918,-10.435269,,,,,,
1478477571.64,0.067370,0.485867,-0.063240,-0.032452,0.005903,0.001136,0.059528,-0.466975,-0.882264,-0.002247,0.007976,0.008973,-12.428629,-40.287918,-10.435269,,,,,,
1478477571.65,0.067124,0.485104,-0.063042,-0.076473,-0.014242,0.011880,0.059335,-0.466300,-0.882634,-0.003289,0.006996,0.005132,-12.428461,-40.282829,-10.455078,,,,,,
1478477571.66,0.066493,0.483857,-0.062783,-0.092568,-0.051454,0.013503,0.058817,-0.465197,-0.883251,-0.000146,0.002352,-0.014088,-12.435026,-40.273209,-10.484312,,,,,,
1478477571.67,0.065867,0.483171,-0.062624,-0.052178,-0.048690,0.007908,0.058285,-0.464589,-0.883606,0.000385,0.001744,-0.013733,-12.435026,-40.273209,-10.484312,,,,,,
1478477571.68,0.065411,0.482477,-0.062462,-0.007175,-0.000102,-0.003296,0.057903,-0.463975,-0.883954,-0.008830,0.004563,-0.037509,-12.455875,-40.249672,-10.549741,,,,,,
1478477571.69,0.065086,0.481972,-0.062284,0.014099,0.019778,-0.000863,0.057631,-0.463528,-0.884206,-0.016844,0.008663,-0.039958,-12.455875,-40.249672,-10.549741,,,,,,
1478477571.70,0.065022,0.481635,-0.062187,0.022943,0.017350,-0.000689,0.057585,-0.463228,-0.884366,-0.007322,0.010088,-0.032443,-12.471414,-40.234051,-10.590884,,,,,,
1478477571.71,0.065235,0.481424,-0.062186,0.013917,0.035856,-0.002356,0.057779,-0.463042,-0.884451,-0.004099,0.008238,-0.018869,-12.471414,-40.234051,-10.590884,,,,,,
1478477571.73,0.065489,0.481100,-0.062077,-0.003910,0.050566,-0.000405,0.058014,-0.462754,-0.884586,-0.009048,0.012361,-0.005596,-12.471419,-40.227547,-10.615556,,,,,,
1478477571.74,0.065844,0.480980,-0.061994,0.007427,0.053121,-0.002734,0.058332,-0.462648,-0.884621,-0.008817,0.005709,-0.003410,-12.471419,-40.227547,-10.615556,,,,,,
1478477571.75,0.066057,0.481149,-0.061920,0.035394,0.033469,0.000457,0.058515,-0.462798,-0.884530,-0.007749,0.003890,-0.003180,-12.469641,-40.220974,-10.642521,,,,,,
1478477571.76,0.066147,0.481528,-0.061925,0.073452,0.013922,-0.001114,0.058583,-0.463134,-0.884350,-0.003560,0.006774,-0.016880,-12.469641,-40.220974,-10.642521,,,,,,
1478477571.77,0.066181,0.482150,-0.061969,0.098731,0.010379,-0.003140,0.058594,-0.463685,-0.884061,-0.003128,0.007355,-0.022113,-12.469996,-40.225529,-10.624865,,,,,,
1478477571.78,0.066485,0.483151,-0.062150,0.092283,0.024009,-0.010821,0.058831,-0.464572,-0.883579,-0.006494,0.008456,-0.023434,-12.469996,-40.225529,-10.624865,,,,,,
1478477571.79,0.066889,0.483908,-0.062297,0.064409,0.033708,-0.007708,0.059165,-0.465242,-0.883204,-0.010062,0.011583,-0.018514,-12.463855,-40.243961,-10.562082,,,,,,
1478477571.80,0.066954,0.484115,-0.062273,0.034141,0.027336,-0.008034,0.059216,-0.465426,-0.883104,-0.007123,0.010485,0.009798,-12.457119,-40.253006,-10.535527,,,,,,
1478477571.81,0.066992,0.484138,-0.062333,0.035567,0.007581,-0.011356,0.059249,-0.465446,-0.883091,-0.006759,0.013038,-0.002682,-12.457709,-40.254738,-10.528214,,,,,,
1478477571.82,0.066524,0.484310,-0.062394,0.067514,-0.035486,-0.015069,0.058830,-0.465598,-0.883039,-0.009117,0.011496,-0.019961,-12.457709,-40.254738,-10.528214,,,,,,
1478477571.83,0.066263,0.485097,-0.062689,0.078885,-0.036603,-0.021018,0.058575,-0.466294,-0.882688,-0.008862,0.012193,-0.020312,-12.457709,-40.254738,-10.528214,,,,,,
1478477571.84,0.065500,0.485457,-0.062765,0.067547,-0.041632,-0.021090,0.057891,-0.466612,-0.882565,-0.017135,0.012373,-0.013858,-12.454843,-40.269051,-10.476748,,,,,,
1478477571.85,0.064726,0.485699,-0.062846,0.042393,-0.054200,-0.016330,0.057200,-0.466827,-0.882497,-0.012721,0.013519,0.001592,-12.454843,-40.269051,-10.476748,,,,,,
1478477571.86,0.064102,0.485855,-0.062935,0.024761,-0.059337,-0.006685,0.056645,-0.466964,-0.882460,-0.001896,0.009506,0.006087,-12.467694,-40.276657,-10.432129,,,,,,
1478477571.87,0.063517,0.485816,-0.062990,0.005780,-0.055769,-0.003340,0.056130,-0.466931,-0.882511,-0.000511,0.011303,0.007084,-12.467694,-40.276657,-10.432129,,,,,,
1478477571.88,0.062746,0.485444,-0.062860,-0.023315,-0.051062,0.003523,0.055460,-0.466601,-0.882728,-0.007578,0.012026,0.004187,-12.476185,-40.279453,-10.411170,,,,,,
1478477571.89,0.061829,0.484892,-0.062619,-0.043424,-0.062361,0.008332,0.054667,-0.466112,-0.883035,-0.009348,0.013125,0.012887,-12.476185,-40.279453,-10.411170,,,,,,
1478477571.90,0.060971,0.484183,-0.062425,-0.068644,-0.067470,0.009282,0.053929,-0.465485,-0.883411,-0.002873,0.011856,0.016193,-12.502808,-40.266258,-10.430255,,,,,,
1478477571.91,0.059935,0.483177,-0.062171,-0.097619,-0.076305,0.009015,0.053042,-0.464595,-0.883933,-0.007357,0.008006,0.012535,-12.502808,-40.266258,-10.430255,,,,,,
1478477571.93,0.058616,0.481942,-0.061854,-0.121468,-0.093740,0.005289,0.051910,-0.463501,-0.884575,-0.011398,0.006455,0.012580,-12.532166,-40.244461,-10.479028,,,,,,
1478477571.94,0.057527,0.480665,-0.061699,-0.121444,-0.096224,0.006558,0.050980,-0.462369,-0.885221,-0.007981,0.008374,0.016370,-12.532166,-40.244461,-10.479028,,,,,,
1478477571.95,0.056552,0.479438,-0.061580,-0.112708,-0.085009,0.002815,0.050149,-0.461281,-0.885836,-0.005120,0.004478,0.002062,-12.566061,-40.214439,-10.553419,,,,,,
1478477571.96,0.055262,0.477685,-0.061352,-0.081238,-0.077342,-0.005437,0.049051,-0.459724,-0.886706,-0.007852,0.003853,-0.029462,-12.577228,-40.200977,-10.591350,,,,,,
1478477571.97,0.054160,0.476732,-0.061208,-0.038281,-0.079601,-0.001095,0.048098,-0.458878,-0.887197,-0.008455,0.004380,-0.032649,-12.594005,-40.180954,-10.647237,,,,,,
1478477571.98,0.053333,0.476598,-0.061281,-0.002913,-0.080556,-0.009154,0.047367,-0.458759,-0.887297,-0.007725,0.004261,-0.032548,-12.594005,-40.180954,-10.647237,,,,,,
1478477571.99,0.052436,0.476300,-0.061285,0.019605,-0.058168,-0.009202,0.046579,-0.458494,-0.887476,-0.008523,0.006880,-0.030829,-12.594005,-40.180954,-10.647237,,,,,,
1478477572.00,0.051544,0.476004,-0.061246,0.008187,-0.054536,-0.009422,0.045794,-0.458231,-0.887653,-0.012682,0.009302,-0.021069,-12.623173,-40.166382,-10.667672,,,,,,
1478477572.01,0.050945,0.475687,-0.061227,-0.019783,-0.034948,-0.006475,0.045269,-0.457949,-0.887825,-0.006710,0.001895,-0.012505,-12.623173,-40.166382,-10.667672,,,,,,
1478477572.02,0.050550,0.475228,-0.061277,-0.043732,-0.041255,-0.009166,0.044929,-0.457541,-0.888053,-0.001305,0.001197,-0.002649,-12.639601,-40.159565,-10.673869,,,,,,
1478477572.03,0.050101,0.474713,-0.061265,-0.047498,-0.042597,0.000614,0.044542,-0.457083,-0.888308,0.000334,0.002494,0.005144,-12.639601,-40.159565,-10.673869,,,,,,
1478477572.04,0.049673,0.474150,-0.061248,-0.053837,-0.040159,0.000481,0.044175,-0.456582,-0.888584,0.002059,0.001046,0.000904,-12.645454,-40.150246,-10.701966,,,,,,
1478477572.05,0.049119,0.473576,-0.061136,-0.047458,-0.046359,0.006810,0.043695,-0.456071,-0.888870,-0.001429,-0.001357,-0.003937,-12.645454,-40.150246,-10.701966,,,,,,
1478477572.06,0.048435,0.473012,-0.061004,-0.051159,-0.056278,0.006925,0.043100,-0.455570,-0.889156,-0.001688,-0.002392,-0.007176,-12.657688,-40.137272,-10.736118,,,,,,
1478477572.07,0.047715,0.472379,-0.060843,-0.064967,-0.065069,0.013006,0.042474,-0.455006,-0.889475,0.001243,-0.001781,-0.000952,-12.657688,-40.137272,-10.736118,,,,,,
1478477572.08,0.047058,0.471621,-0.060635,-0.065076,-0.052731,0.016475,0.041905,-0.454331,-0.889847,0.002284,0.000886,-0.002197,-12.679492,-40.121712,-10.768502,,,,,,
1478477572.09,0.046544,0.471134,-0.060478,-0.036101,-0.045086,0.010632,0.041458,-0.453897,-0.890089,0.002487,-0.001349,-0.006456,-12.679492,-40.121712,-10.768502,,,,,,
1478477572.10,0.046011,0.471029,-0.060414,-0.001995,-0.046059,0.003782,0.040986,-0.453804,-0.890159,-0.005677,-0.000038,-0.008187,-12.701020,-40.104748,-10.806262,,,,,,
1478477572.11,0.045847,0.471272,-0.060398,0.029189,-0.002565,0.001045,0.040835,-0.454020,-0.890055,-0.005144,0.002405,-0.017019,-12.701020,-40.104748,-10.806262,,,,,,
1478477572.12,0.045977,0.471453,-0.060378,0.039132,0.014789,0.003349,0.040947,-0.454181,-0.889968,0.000175,0.006550,-0.009202,-12.711253,-40.105221,-10.792458,,,,,,
1478477572.14,0.046045,0.471587,-0.060323,0.020134,0.019631,0.001768,0.041005,-0.454300,-0.889904,-0.003652,0.002701,-0.007038,-12.710796,-40.106834,-10.787000,,,,,,
1478477572.15,0.046083,0.471633,-0.060240,0.012574,0.017108,0.001704,0.041037,-0.454342,-0.889882,-0.005957,0.003933,-0.002773,-12.710796,-40.106834,-10.787000,,,,,,
1478477572.16,0.046220,0.471671,-0.060158,0.011314,0.017058,0.006593,0.041159,-0.454376,-0.889859,-0.001669,0.005843,0.002988,-12.714250,-40.107040,-10.782165,,,,,,
1478477572.17,0.046203,0.471640,-0.060032,-0.003741,0.005815,0.009019,0.041144,-0.454348,-0.889874,-0.002433,0.003603,0.004315,-12.714250,-40.107040,-10.782165,,,,,,
1478477572.18,0.046230,0.471713,-0.059885,0.010104,0.012039,0.014019,0.041167,-0.454413,-0.889840,-0.002806,0.003607,0.001580,-12.719359,-40.104664,-10.784964,,,,,,
1478477572.19,0.046118,0.471756,-0.059676,0.000163,-0.005387,0.020302,0.041066,-0.454451,-0.889825,-0.002538,0.003081,-0.000083,-12.719359,-40.104664,-10.784964,,,,,,
1478477572.20,0.045912,0.471578,-0.059365,-0.023804,-0.008065,0.027360,0.040887,-0.454292,-0.889914,-0.001855,0.005531,-0.002588,-12.731442,-40.101662,-10.781882,,,,,,
1478477572.21,0.045746,0.471136,-0.058974,-0.046667,0.006590,0.032915,0.040747,-0.453899,-0.890121,-0.002646,0.002971,0.006912,-12.742919,-40.096180,-10.788704,,,,,,
1478477572.22,0.045710,0.470775,-0.058563,-0.046768,0.017752,0.029045,0.040723,-0.453577,-0.890286,-0.003843,0.003366,0.007535,-12.742919,-40.096180,-10.788704,,,,,,
1478477572.23,0.045422,0.470284,-0.058071,-0.032825,0.011663,0.026900,0.040477,-0.453139,-0.890520,-0.008739,0.002944,-0.003569,-12.768299,-40.078526,-10.824240,,,,,,
1478477572.24,0.045076,0.469822,-0.057653,-0.012559,0.004366,0.026092,0.040179,-0.452727,-0.890743,-0.007006,0.004821,-0.012287,-12.768299,-40.078526,-10.824240,,,,,,
1478477572.25,0.044996,0.469602,-0.057299,0.007404,0.030483,0.022263,0.040111,-0.452531,-0.890846,-0.006725,0.004762,-0.010231,-12.801434,-40.057999,-10.861031,,,,,,
1478477572.26,0.045041,0.469446,-0.056966,0.003548,0.036659,0.019653,0.040155,-0.452392,-0.890915,-0.007837,0.005828,-0.007294,-12.801434,-40.057999,-10.861031,,,,,,
1478477572.27,0.044960,0.469293,-0.056602,-0.003908,0.022972,0.023459,0.040086,-0.452256,-0.890987,-0.007539,0.000062,-0.010686,-12.822282,-40.045990,-10.880708,,,,,,
1478477572.28,0.044916,0.469093,-0.056210,-0.014137,0.036499,0.024312,0.040051,-0.452077,-0.891079,-0.008114,-0.001200,-0.009540,-12.822282,-40.045990,-10.880708,,,,,,
1478477572.29,0.045078,0.468753,-0.055804,-0.034506,0.053688,0.023731,0.040202,-0.451774,-0.891226,-0.008326,0.000648,-0.003351,-12.846269,-40.033371,-10.898823,,,,,,
1478477572.30,0.045093,0.468258,-0.055375,-0.052048,0.037519,0.021300,0.040225,-0.451332,-0.891449,-0.009723,0.002220,0.005142,-12.846269,-40.033371,-10.898823,,,,,,
1478477572.31,0.045088,0.467623,-0.054947,-0.067186,0.036134,0.027240,0.040234,-0.450766,-0.891735,-0.007733,0.003759,0.009426,-12.868493,-40.014816,-10.940673,,,,,,
1478477572.32,0.045050,0.466816,-0.054473,-0.076005,0.033592,0.028384,0.040217,-0.450045,-0.892100,-0.008066,0.002459,0.002879,-12.868493,-40.014816,-10.940673,,,,,,
1478477572.33,0.044741,0.466030,-0.053884,-0.063239,0.018793,0.031276,0.039957,-0.449343,-0.892465,-0.013529,-0.000181,-0.007117,-12.894081,-39.989086,-11.004432,,,,,,
1478477572.35,0.044410,0.465597,-0.053484,-0.036288,-0.028047,0.032455,0.039669,-0.448956,-0.892673,-0.011547,0.001370,-0.008847,-12.894081,-39.989086,-11.004432,,,,,,
1478477572.36,0.043831,0.465420,-0.053195,-0.008370,-0.043857,0.020861,0.039156,-0.448798,-0.892775,-0.007937,0.003043,-0.020799,-12.929349,-39.964523,-11.052177,,,,,,
1478477572.37,0.043311,0.465519,-0.053003,0.009274,-0.040001,0.016145,0.038690,-0.448886,-0.892751,-0.011774,0.005939,-0.020610,-12.944297,-39.959217,-11.053868,,,,,,
1478477572.38,0.042488,0.465245,-0.052682,-0.000996,-0.023932,0.008372,0.037961,-0.448642,-0.892905,-0.012524,0.003772,-0.016870,-12.944297,-39.959217,-11.053868,,,,,,
1478477572.39,0.042158,0.464837,-0.052393,-0.027894,0.016695,0.009755,0.037673,-0.448277,-0.893101,-0.011581,0.004948,-0.004849,-12.974604,-39.951225,-11.047223,,,,,,
1478477572.40,0.041926,0.464335,-0.052108,-0.040472,0.010429,0.009682,0.037476,-0.447828,-0.893334,-0.009796,0.003630,-0.000129,-12.974604,-39.951225,-11.047223,,,,,,
1478477572.41,0.041714,0.463782,-0.051868,-0.030457,0.019168,0.006004,0.037297,-0.447334,-0.893589,-0.010960,0.006080,-0.004864,-12.996906,-39.934772,-11.080445,,,,,,
1478477572.42,0.041422,0.463314,-0.051608,-0.026503,0.000609,0.008831,0.037045,-0.446915,-0.893809,-0.010983,0.004548,-0.005742,-12.996906,-39.934772,-11.080445,,,,,,
1478477572.43,0.040780,0.462934,-0.051383,-0.021099,-0.038934,0.008354,0.036477,-0.446576,-0.894002,-0.008401,0.003414,-0.005015,-13.016174,-39.917973,-11.118284,,,,,,
1478477572.44,0.040032,0.462479,-0.051154,-0.044913,-0.058919,0.014481,0.035817,-0.446168,-0.894232,-0.003331,0.002824,0.001395,-13.016174,-39.917973,-11.118284,,,,,,
1478477572.45,0.038993,0.461855,-0.050892,-0.071342,-0.070182,0.010612,0.034899,-0.445609,-0.894547,-0.007372,-0.000863,0.002839,-13.044209,-39.903671,-11.136765,,,,,,
1478477572.46,0.038141,0.460915,-0.050612,-0.087959,-0.048064,0.014907,0.034153,-0.444768,-0.894994,-0.007007,-0.000468,-0.004328,-13.044209,-39.903671,-11.136765,,,,,,
1478477572.47,0.037567,0.459787,-0.050385,-0.089463,-0.023269,0.005884,0.033658,-0.443757,-0.895515,-0.005917,0.003114,-0.008919,-13.079541,-39.880482,-11.178312,,,,,,
1478477572.48,0.037393,0.458741,-0.050207,-0.070895,0.017662,0.004238,0.033519,-0.442819,-0.895984,-0.007060,0.000849,-0.019406,-13.079541,-39.880482,-11.178312,,,,,,
1478477572.49,0.037480,0.457923,-0.050067,-0.040667,0.026484,0.005755,0.033611,-0.442086,-0.896343,-0.004955,0.004204,-0.020131,-13.097095,-39.852280,-11.258045,,,,,,
1478477572.50,0.037556,0.457352,-0.049954,-0.024286,0.029101,-0.000182,0.033688,-0.441574,-0.896592,-0.006314,0.004608,-0.017104,-13.097095,-39.852280,-11.258045,,,,,,
1478477572.51,0.037864,0.457070,-0.049931,-0.024261,0.026607,0.002313,0.033969,-0.441321,-0.896706,-0.006626,0.001776,-0.015297,-13.100944,-39.834232,-11.317288,,,,,,
1478477572.52,0.038033,0.456813,-0.049827,-0.027972,0.019091,0.010972,0.034125,-0.441090,-0.896814,-0.007590,0.000691,-0.015067,-13.097750,-39.830902,-11.332694,,,,,,
1478477572.53,0.037844,0.456281,-0.049604,-0.036698,0.005439,0.009852,0.033964,-0.440612,-0.897055,-0.006651,0.000610,-0.012079,-13.097750,-39.830902,-11.332694,,,,,,
1478477572.55,0.037758,0.455795,-0.049399,-0.032930,0.007901,0.013546,0.033895,-0.440176,-0.897272,-0.003744,-0.000437,-0.012702,-13.106826,-39.818375,-11.366182,,,,,,
1478477572.56,0.037622,0.455348,-0.049215,-0.026558,0.000546,0.010085,0.033781,-0.439774,-0.897473,-0.002806,0.002686,-0.009525,-13.106826,-39.818375,-11.366182,,,,,,
1478477572.57,0.037306,0.454950,-0.049009,-0.039031,-0.016869,0.012653,0.033504,-0.439417,-0.897658,-0.005687,0.001612,-0.000367,-13.119879,-39.803497,-11.403167,,,,,,
1478477572.58,0.036605,0.454495,-0.048715,-0.054004,-0.036774,0.015228,0.032882,-0.439009,-0.897881,-0.007720,0.001463,0.009911,-13.119879,-39.803497,-11.403167,,,,,,
1478477572.59,0.036040,0.453877,-0.048378,-0.070669,-0.009670,0.014533,0.032384,-0.438453,-0.898171,-0.010854,0.001655,0.010796,-13.145614,-39.788097,-11.427248,,,,,,
1478477572.60,0.035670,0.453219,-0.048113,-0.075874,0.006441,0.005604,0.032062,-0.437862,-0.898470,-0.013080,0.000530,0.011614,-13.145614,-39.788097,-11.427248,,,,,,
1478477572.61,0.035282,0.452411,-0.047796,-0.080872,0.001401,0.011753,0.031726,-0.437136,-0.898836,-0.013660,-0.000563,0.004732,-13.172956,-39.766769,-11.469920,,,,,,
1478477572.62,0.034937,0.451710,-0.047508,-0.063162,-0.000996,0.014505,0.031426,-0.436505,-0.899153,-0.009576,-0.002628,-0.002703,-13.172956,-39.766769,-11.469920,,,,,,
1478477572.63,0.034645,0.451208,-0.047279,-0.043069,0.010348,0.002342,0.031172,-0.436053,-0.899381,-0.012678,-0.003233,-0.007830,-13.197846,-39.742744,-11.524452,,,,,,
1478477572.64,0.034423,0.450853,-0.047089,-0.025352,0.006723,0.003890,0.030978,-0.435733,-0.899543,-0.011660,0.000064,-0.004190,-13.197846,-39.742744,-11.524452,,,,,,
1478477572.65,0.033901,0.450591,-0.046908,-0.017476,-0.026614,0.002117,0.030512,-0.435498,-0.899673,-0.012491,0.000241,-0.005448,-13.215460,-39.728115,-11.554666,,,,,,
1478477572.66,0.033208,0.450485,-0.046775,-0.000858,-0.048775,0.001508,0.029889,-0.435402,-0.899740,-0.008557,-0.001869,-0.010630,-13.215460,-39.728115,-11.554666,,,,,,
1478477572.67,0.032372,0.450433,-0.046613,0.005540,-0.057454,0.007882,0.029139,-0.435355,-0.899787,-0.007517,-0.003640,-0.018731,-13.238649,-39.720184,-11.555383,,,,,,
1478477572.68,0.031751,0.450433,-0.046544,-0.000827,-0.052502,0.002801,0.028579,-0.435356,-0.899805,-0.010879,-0.003243,-0.018225,-13.253194,-39.717628,-11.547493,,,,,,
1478477572.69,0.031247,0.450450,-0.046441,-0.012256,-0.043997,0.012303,0.028125,-0.435371,-0.899812,-0.000888,-0.005898,0.000977,-13.253194,-39.717628,-11.547493,,,,,,
1478477572.70,0.030639,0.450433,-0.046306,-0.007011,-0.064988,0.012731,0.027579,-0.435356,-0.899836,0.005548,-0.004418,-0.003271,-13.271500,-39.715710,-11.533066,,,,,,
1478477572.71,0.029481,0.450285,-0.045972,-0.008488,-0.042689,0.004982,0.026539,-0.435222,-0.899932,-0.022968,-0.002400,-0.012284,-13.271500,-39.715710,-11.533066,,,,,,
1478477572.72,0.028379,0.450204,-0.045656,-0.009603,-0.058802,0.006471,0.025547,-0.435149,-0.899996,-0.021489,-0.008653,-0.015196,-13.306066,-39.708111,-11.519392,,,,,,
1478477572.73,0.027256,0.450206,-0.045537,0.018571,-0.101908,0.005155,0.024537,-0.435151,-0.900023,-0.004120,-0.009917,-0.029832,-13.306066,-39.708111,-11.519392,,,,,,
1478477572.74,0.025847,0.450624,-0.045440,0.057899,-0.121438,0.002375,0.023264,-0.435527,-0.899875,-0.004633,-0.010976,-0.035168,-13.344952,-39.701889,-11.495831,,,,,,
1478477572.76,0.024402,0.451182,-0.045334,0.060307,-0.109053,0.000978,0.021958,-0.436030,-0.899664,-0.009949,-0.007742,-0.028345,-13.344952,-39.701889,-11.495831,,,,,,
1478477572.77,0.023008,0.451524,-0.045223,0.013609,-0.113057,0.001601,0.020701,-0.436338,-0.899545,-0.009119,-0.005389,-0.005362,-13.384877,-39.710239,-11.420322,,,,,,
1478477572.78,0.021371,0.451529,-0.045116,-0.050461,-0.150557,0.002535,0.019228,-0.436342,-0.899575,-0.005876,-0.010359,0.016595,-13.384877,-39.710239,-11.420322,,,,,,
1478477572.79,0.019442,0.450977,-0.045078,-0.099484,-0.176751,-0.006316,0.017498,-0.435845,-0.899851,-0.004589,-0.009223,0.022975,-13.426437,-39.711407,-11.367354,,,,,,
1478477572.80,0.017300,0.449835,-0.044985,-0.136281,-0.158389,-0.012058,0.015578,-0.434817,-0.900384,-0.018569,-0.003660,0.016976,-13.426437,-39.711407,-11.367354,,,,,,
1478477572.81,0.015565,0.448578,-0.045013,-0.136650,-0.118714,-0.026219,0.014024,-0.433685,-0.900955,-0.020021,0.000534,0.022034,-13.475457,-39.690971,-11.380706,,,,,,
1478477572.82,0.014121,0.447398,-0.045082,-0.131835,-0.091493,-0.026603,0.012730,-0.432621,-0.901486,-0.022496,0.001835,0.029599,-13.493577,-39.677269,-11.406994,,,,,,
1478477572.83,0.012902,0.446385,-0.045150,-0.094058,-0.077690,-0.025058,0.011637,-0.431708,-0.901938,-0.019831,0.004767,0.022574,-13.493577,-39.677269,-11.406994,,,,,,
1478477572.84,0.012268,0.445963,-0.045535,-0.022075,-0.077161,-0.036292,0.011068,-0.431327,-0.902128,-0.013006,0.002082,0.011671,-13.518542,-39.654320,-11.457133,,,,,,
1478477572.85,0.011467,0.446252,-0.045957,0.045082,-0.100254,-0.036159,0.010344,-0.431588,-0.902012,-0.013441,0.004678,-0.008984,-13.518542,-39.654320,-11.457133,,,,,,
1478477572.86,0.010026,0.446696,-0.046165,0.079357,-0.119873,-0.032873,0.009042,-0.431989,-0.901834,-0.014596,0.007672,-0.017859,-13.510037,-39.662750,-11.437954,,,,,,
1478477572.87,0.008537,0.447252,-0.046426,0.061804,-0.134846,-0.030417,0.007697,-0.432490,-0.901606,-0.009025,0.005244,-0.005331,-13.510037,-39.662750,-11.437954,,,,,,
1478477572.88,0.007223,0.447579,-0.046658,0.022388,-0.105475,-0.022893,0.006512,-0.432784,-0.901474,-0.008923,0.007094,0.009201,-13.529353,-39.679779,-11.355781,,,,,,
1478477572.89,0.006326,0.447275,-0.046849,-0.037345,-0.066214,-0.029320,0.005704,-0.432510,-0.901611,-0.008985,0.008346,0.014877,-13.529353,-39.679779,-11.355781,,,,,,
1478477572.90,0.005988,0.446502,-0.047263,-0.079444,-0.023034,-0.047825,0.005401,-0.431813,-0.901947,-0.007674,0.008671,0.015427,-13.541362,-39.685230,-11.322360,,,,,,
1478477572.91,0.006120,0.445436,-0.047711,-0.084894,0.020218,-0.048629,0.005522,-0.430852,-0.902406,-0.008467,0.009618,0.003831,-13.541362,-39.685230,-11.322360,,,,,,
1478477572.92,0.006784,0.444374,-0.048304,-0.058697,0.053848,-0.058627,0.006125,-0.429893,-0.902859,-0.004203,0.014670,-0.005161,-13.516635,-39.675079,-11.387293,,,,,,
1478477572.93,0.007584,0.443625,-0.049012,-0.024653,0.057839,-0.068010,0.006850,-0.429216,-0.903176,-0.006209,0.008119,-0.023551,-13.516635,-39.675079,-11.387293,,,,,,
1478477572.94,0.008315,0.443161,-0.049766,0.004454,0.049400,-0.073574,0.007511,-0.428797,-0.903369,-0.008259,0.005595,-0.034253,-13.459203,-39.670471,-11.471063,,,,,,
1478477572.96,0.008956,0.442878,-0.050611,0.023487,0.037192,-0.079221,0.008092,-0.428542,-0.903486,-0.007237,0.007338,-0.035372,-13.459203,-39.670471,-11.471063,,,,,,
1478477572.97,0.009683,0.442917,-0.051543,0.039902,0.036072,-0.081415,0.008749,-0.428577,-0.903463,-0.002050,0.004779,-0.029063,-13.393761,-39.681515,-11.509400,,,,,,
1478477572.98,0.010555,0.443024,-0.052505,0.043552,0.049720,-0.084043,0.009536,-0.428674,-0.903409,-0.001464,0.007730,-0.023120,-13.393761,-39.681515,-11.509400,,,,,,
1478477572.99,0.011445,0.443134,-0.053433,0.037140,0.059553,-0.081845,0.010339,-0.428773,-0.903353,-0.005228,0.002595,-0.025083,-13.316829,-39.706223,-11.513461,,,,,,
1478477573.00,0.012526,0.443231,-0.054392,0.039671,0.058302,-0.078107,0.011316,-0.428860,-0.903300,0.002204,0.002850,-0.026815,-13.277932,-39.718719,-11.515283,,,,,,
1478477573.01,0.013555,0.443401,-0.055375,0.042412,0.033589,-0.077651,0.012244,-0.429014,-0.903215,0.008325,0.002607,-0.021376,-13.277932,-39.718719,-11.515283,,,,,,
1478477573.02,0.013927,0.444005,-0.056264,0.061774,-0.012070,-0.075374,0.012576,-0.429560,-0.902951,0.006528,-0.002356,-0.027469,-13.193638,-39.745228,-11.520703,,,,,,
1478477573.03,0.013881,0.444597,-0.057153,0.062082,-0.046679,-0.077238,0.012531,-0.430094,-0.902697,0.000118,-0.002234,-0.011319,-13.193638,-39.745228,-11.520703,,,,,,
1478477573.04,0.013672,0.445210,-0.058118,0.067235,-0.058955,-0.084315,0.012339,-0.430647,-0.902436,-0.000315,-0.001436,-0.010299,-13.135502,-39.780136,-11.466537,,,,,,
1478477573.05,0.013612,0.445917,-0.059172,0.069676,-0.050240,-0.089333,0.012280,-0.431286,-0.902132,0.001697,-0.000172,-0.001784,-13.135502,-39.780136,-11.466537,,,,,,
1478477573.06,0.013648,0.446612,-0.060243,0.064455,-0.031709,-0.090948,0.012309,-0.431912,-0.901832,-0.000544,0.001752,0.003867,-13.076708,-39.819168,-11.398048,,,,,,
1478477573.07,0.014122,0.447203,-0.061324,0.037478,0.017655,-0.098303,0.012733,-0.432445,-0.901570,-0.003608,0.000316,0.012425,-13.076708,-39.819168,-11.398048,,,,,,
1478477573.08,0.014955,0.447612,-0.062504,0.029660,0.043631,-0.104986,0.013481,-0.432814,-0.901382,-0.003883,0.000838,0.012558,-13.004870,-39.859161,-11.340301,,,,,,
1478477573.09,0.015819,0.447812,-0.063659,0.006916,0.044729,-0.105331,0.014259,-0.432994,-0.901284,-0.007087,0.001216,0.012719,-13.004870,-39.859161,-11.340301,,,,,,
1478477573.10,0.016639,0.447868,-0.064865,0.003380,0.017466,-0.101243,0.014997,-0.433045,-0.901248,0.000369,0.002167,0.009387,-12.913515,-39.893581,-11.323656,,,,,,
1478477573.11,0.017167,0.447969,-0.066068,0.002295,-0.002309,-0.103378,0.015472,-0.433136,-0.901196,-0.000686,-0.001816,0.003689,-12.913515,-39.893581,-11.323656,,,,,,
1478477573.12,0.017564,0.448017,-0.067210,0.002266,0.001376,-0.100987,0.015829,-0.433179,-0.901169,-0.005179,-0.000994,0.001800,-12.823542,-39.923664,-11.319877,,,,,,
1478477573.13,0.017904,0.447908,-0.068317,-0.012859,-0.002419,-0.102365,0.016137,-0.433081,-0.901211,-0.008050,0.002630,0.007503,-12.823542,-39.923664,-11.319877,,,,,,
1478477573.14,0.018134,0.447673,-0.069392,-0.021560,-0.017358,-0.097332,0.016346,-0.432869,-0.901309,-0.005131,0.002953,0.007494,-12.745235,-39.949299,-11.317875,,,,,,
1478477573.15,0.018055,0.447280,-0.070463,-0.035131,-0.053310,-0.096919,0.016278,-0.432515,-0.901480,-0.005322,0.001836,0.000754,-12.709017,-39.959229,-11.323559,,,,,,
1478477573.17,0.017620,0.446708,-0.071466,-0.060208,-0.073305,-0.090809,0.015890,-0.431999,-0.901734,-0.007254,0.000191,-0.000045,-12.709017,-39.959229,-11.323559,,,,,,
1478477573.18,0.017317,0.446098,-0.072548,-0.052632,-0.073240,-0.093153,0.015622,-0.431449,-0.902002,-0.006573,0.001517,-0.000998,-12.649587,-39.972599,-11.342887,,,,,,
1478477573.19,0.017002,0.445389,-0.073569,-0.040263,-0.045921,-0.098338,0.015342,-0.430809,-0.902313,-0.008064,0.004006,-0.017380,-12.649587,-39.972599,-11.342887,,,,,,
1478477573.20,0.017215,0.444825,-0.074639,-0.026849,0.006110,-0.100245,0.015539,-0.430300,-0.902552,-0.008703,0.003481,-0.017720,-12.590177,-39.982216,-11.375051,,,,,,
1478477573.21,0.017822,0.444404,-0.075755,-0.010641,0.028475,-0.101612,0.016090,-0.429920,-0.902724,-0.006401,0.006244,-0.013384,-12.590177,-39.982216,-11.375051,,,,,,
1478477573.22,0.018337,0.444210,-0.076765,0.003239,0.029753,-0.097749,0.016556,-0.429744,-0.902799,-0.013642,0.002864,-0.015109,-12.511956,-39.996368,-11.411544,,,,,,
1478477573.23,0.018805,0.444000,-0.077777,-0.009362,0.025948,-0.096635,0.016980,-0.429555,-0.902881,-0.013456,-0.000392,-0.014813,-12.511956,-39.996368,-11.411544,,,,,,
1478477573.24,0.019305,0.443711,-0.078803,-0.027025,0.023352,-0.095617,0.017434,-0.429294,-0.902996,-0.009728,-0.000378,-0.007084,-12.437351,-40.014992,-11.427803,,,,,,
1478477573.25,0.019895,0.443124,-0.079758,-0.059876,0.025535,-0.085088,0.017972,-0.428764,-0.903238,-0.005292,-0.000069,-0.003836,-12.437351,-40.014992,-11.427803,,,,,,
1478477573.26,0.020509,0.442311,-0.080618,-0.080156,0.034017,-0.079391,0.018534,-0.428029,-0.903575,-0.004862,-0.002101,-0.002156,-12.362307,-40.027771,-11.464420,,,,,,
1478477573.27,0.021261,0.441492,-0.081510,-0.078865,0.031531,-0.076878,0.019221,-0.427289,-0.903911,0.000738,-0.003345,-0.000767,-12.362307,-40.027771,-11.464420,,,,,,
1478477573.28,0.021764,0.440856,-0.082362,-0.058451,0.009377,-0.074983,0.019682,-0.426714,-0.904173,-0.001448,-0.003050,-0.001681,-12.290525,-40.029297,-11.536045,,,,,,
1478477573.29,0.021700,0.440445,-0.083133,-0.027723,-0.036210,-0.073767,0.019628,-0.426342,-0.904349,-0.006749,-0.003757,-0.011819,-12.290525,-40.029297,-11.536045,,,,,,
1478477573.30,0.021370,0.440274,-0.083914,-0.004808,-0.055879,-0.071876,0.019331,-0.426188,-0.904428,-0.005857,-0.005026,-0.016623,-12.233804,-40.035839,-11.573566,,,,,,
1478477573.31,0.021020,0.440179,-0.084692,0.007725,-0.045896,-0.074313,0.019015,-0.426101,-0.904476,-0.007998,-0.003602,-0.022114,-12.213030,-40.042721,-11.571700,,,,,,
1478477573.32,0.020829,0.440023,-0.085479,0.002497,-0.027381,-0.074697,0.018843,-0.425960,-0.904546,-0.008925,-0.000294,-0.022792,-12.213030,-40.042721,-11.571700,,,,,,
1478477573.33,0.021054,0.439991,-0.086392,-0.005189,-0.016253,-0.079902,0.019047,-0.425931,-0.904555,-0.008000,0.006360,-0.014421,-12.170123,-40.057480,-11.565829,,,,,,
1478477573.34,0.021234,0.439873,-0.087325,-0.013975,-0.022489,-0.079924,0.019212,-0.425824,-0.904602,-0.008683,0.003629,-0.009247,-12.170123,-40.057480,-11.565829,,,,,,
1478477573.35,0.021078,0.439521,-0.088166,-0.028990,-0.038663,-0.079865,0.019074,-0.425506,-0.904755,-0.007492,0.002776,-0.002411,-12.107502,-40.076447,-11.565831,,,,,,
1478477573.37,0.020782,0.439102,-0.089015,-0.034018,-0.042369,-0.084777,0.018809,-0.425127,-0.904938,-0.010081,0.000185,-0.005279,-12.107502,-40.076447,-11.565831,,,,,,
1478477573.38,0.020473,0.438542,-0.089876,-0.046539,-0.054838,-0.082291,0.018535,-0.424620,-0.905182,-0.008006,0.002592,-0.004623,-12.059118,-40.086582,-11.581254,,,,,,
1478477573.39,0.019870,0.437790,-0.090779,-0.062752,-0.079606,-0.090689,0.017995,-0.423939,-0.905512,-0.010228,0.004246,-0.002386,-12.059118,-40.086582,-11.581254,,,,,,
1478477573.40,0.018989,0.436783,-0.091808,-0.082780,-0.103080,-0.108973,0.017205,-0.423027,-0.905954,-0.014779,0.007027,-0.000861,-12.013292,-40.091286,-11.612560,,,,,,
1478477573.41,0.017701,0.435313,-0.092930,-0.118054,-0.117975,-0.130070,0.016050,-0.421694,-0.906596,-0.028455,0.015215,-0.000859,-12.013292,-40.091286,-11.612560,,,,,,
1478477573.42,0.016090,0.432889,-0.094302,-0.217522,-0.159204,-0.154100,0.014605,-0.419495,-0.907640,-0.031893,0.020844,0.000200,-11.969132,-40.086803,-11.673469,,,,,,
1478477573.43,0.014271,0.428783,-0.095783,-0.379030,-0.182410,-0.159707,0.012978,-0.415765,-0.909380,-0.028634,0.023034,-0.008070,-11.969132,-40.086803,-11.673469,,,,,,
1478477573.44,0.013023,0.423098,-0.097602,-0.514435,-0.159612,-0.174304,0.011874,-0.410587,-0.911744,-0.010943,0.018757,-0.017074,-11.915634,-40.042595,-11.878142,,,,,,
1478477573.45,0.012991,0.421660,-0.098041,0.237494,0.109032,0.033162,0.011853,-0.409275,-0.912334,-0.019589,0.021122,-0.031193,-11.915634,-40.042595,-11.878142,,,,,,
1478477573.46,0.020443,0.432056,-0.097697,1.137122,0.913766,-0.018940,0.018563,-0.418739,-0.907917,-0.033989,0.024207,-0.025265,-11.855988,-39.983009,-12.135751,,,,,,
1478477573.47,0.027909,0.441729,-0.099336,0.836675,0.460121,-0.111283,0.025227,-0.427503,-0.903662,-0.172917,0.052625,-0.017588,-11.784573,-40.101639,-11.809498,,,,,,
1478477573.48,0.027115,0.449870,-0.098997,0.765490,-0.162824,0.090758,0.024414,-0.434849,-0.900172,-0.101089,0.077198,-0.236150,-11.784573,-40.101639,-11.809498,,,,,,
1478477573.49,0.025727,0.456113,-0.100125,0.510322,-0.196831,-0.163775,0.023095,-0.440462,-0.897474,0.005561,-0.070570,-0.086901,-11.684062,-40.315369,-11.164030,,,,,,
1478477573.50,0.024265,0.458922,-0.104403,0.204399,-0.344958,-0.413434,0.021752,-0.442982,-0.896267,-0.079064,-0.033825,0.156490,-11.684062,-40.315369,-11.164030,,,,,,
1478477573.51,0.022859,0.458661,-0.110525,-0.083267,-0.401181,-0.550321,0.020495,-0.442747,-0.896412,-0.236574,0.002837,0.228611,-11.554498,-40.469524,-10.732807,,,,,,
1478477573.52,0.021678,0.456456,-0.117535,-0.219711,-0.407640,-0.614731,0.019457,-0.440770,-0.897409,-0.173342,-0.043315,0.154993,-11.554498,-40.469524,-10.732807,,,,,,
1478477573.53,0.020650,0.453876,-0.125101,-0.228541,-0.415924,-0.665004,0.018558,-0.438453,-0.898563,-0.149341,-0.023355,0.078189,-11.164957,-40.580402,-10.726438,,,,,,
1478477573.54,0.019225,0.451646,-0.132891,-0.185695,-0.409226,-0.697605,0.017296,-0.436447,-0.899563,-0.140557,0.011978,0.016751,-11.164957,-40.580402,-10.726438,,,,,,
1478477573.55,0.018941,0.449931,-0.140885,-0.140851,-0.337349,-0.683454,0.017055,-0.434903,-0.900316,-0.113673,0.037076,-0.014022,-10.699270,-40.683571,-10.809920,,,,,,
1478477573.56,0.019234,0.449222,-0.148621,-0.010985,-0.304778,-0.640430,0.017324,-0.434265,-0.900619,-0.082373,0.053894,-0.009416,-10.699270,-40.683571,-10.809920,,,,,,
1478477573.58,0.018159,0.452230,-0.154747,0.425510,-0.360385,-0.481109,0.016333,-0.436973,-0.899327,-0.033178,0.108619,-0.017147,-10.194446,-40.808701,-10.826127,,,,,,
1478477573.59,0.013938,0.461468,-0.160194,1.074344,-0.733605,-0.488739,0.012480,-0.445263,-0.895313,-0.064024,0.041088,-0.025051,-10.194446,-40.808701,-10.826127,,,,,,
1478477573.60,0.002970,0.476366,-0.166287,1.509182,-1.469150,-0.503159,0.002639,-0.458553,-0.888663,-0.118926,0.120280,-0.067132,-9.886674,-41.041634,-10.213710,,,,,,
1478477573.61,-0.014986,0.493754,-0.172256,1.675711,-2.145829,-0.504050,-0.013196,-0.473935,-0.880461,-0.094531,0.118665,-0.012605,-9.886674,-41.041634,-10.213710,,,,,,
1478477573.62,-0.039133,0.510588,-0.176428,1.528267,-2.583335,-0.349165,-0.034133,-0.488690,-0.871789,-0.046158,0.131268,0.073556,-9.767337,-41.449909,-8.543184,,,,,,
1478477573.63,-0.066827,0.520772,-0.179878,0.685703,-2.861671,-0.354178,-0.057925,-0.497550,-0.865499,-0.071515,0.107322,0.158315,-9.767337,-41.449909,-8.543184,,,,,,
1478477573.64,-0.092385,0.517976,-0.185766,-0.625903,-2.554249,-0.497268,-0.080152,-0.495123,-0.865118,-0.120043,0.151083,0.190557,-9.872972,-41.732407,-6.885662,,,,,,
1478477573.65,-0.106011,0.504129,-0.193292,-1.567784,-1.340807,-0.470027,-0.092649,-0.483045,-0.870680,-0.024340,0.113217,0.299635,-9.863534,-41.758751,-6.737915,,,,,,
1478477573.66,-0.105069,0.486155,-0.201013,-1.797458,0.175136,-0.463366,-0.092725,-0.467230,-0.879260,-0.108035,0.073645,0.368838,-9.863534,-41.758751,-6.737915,,,,,,
1478477573.67,-0.086482,0.467303,-0.209343,-1.877355,1.737352,-0.557119,-0.077114,-0.450480,-0.889450,-0.236637,0.046214,0.279297,-9.586475,-41.615871,-7.918373,,,,,,
1478477573.68,-0.062389,0.447701,-0.218107,-1.903897,1.871241,-0.614953,-0.056204,-0.432894,-0.899691,-0.159097,0.107623,0.132937,-9.586475,-41.615871,-7.918373,,,,,,
1478477573.69,-0.043453,0.430063,-0.226324,-1.627347,1.320163,-0.620055,-0.039484,-0.416928,-0.908081,-0.120001,0.079145,-0.001190,-8.777170,-41.373512,-9.883088,,,,,,
1478477573.70,-0.031863,0.416593,-0.234528,-1.180008,0.591343,-0.689597,-0.029133,-0.404648,-0.914009,-0.078670,0.053467,-0.038643,-8.777170,-41.373512,-9.883088,,,,,,
1478477573.71,-0.028371,0.408679,-0.243643,-0.639938,-0.199675,-0.795999,-0.026031,-0.397397,-0.917277,-0.020569,0.082746,-0.152684,-7.971357,-41.147934,-11.392402,,,,,,
1478477573.72,-0.030389,0.405465,-0.252945,-0.248208,-0.635120,-0.792804,-0.027920,-0.394446,-0.918495,-0.032840,0.102912,-0.154335,-7.971357,-41.147934,-11.392402,,,,,,
1478477573.73,-0.036023,0.404310,-0.261248,-0.115572,-0.902253,-0.696849,-0.033112,-0.393384,-0.918778,-0.027130,0.092694,-0.096466,-7.359587,-41.139408,-11.826561,,,,,,
1478477573.74,-0.043593,0.403793,-0.268670,-0.053756,-1.024844,-0.633791,-0.040074,-0.392909,-0.918704,-0.005351,0.109614,-0.024274,-7.359587,-41.139408,-11.826561,,,,,,
1478477573.75,-0.052962,0.404782,-0.275729,0.104562,-1.209508,-0.619803,-0.048659,-0.393818,-0.917899,-0.025483,0.132588,0.047462,-6.996189,-41.216629,-11.778156,,,,,,
1478477573.76,-0.065074,0.407507,-0.282423,0.272406,-1.467245,-0.586048,-0.059703,-0.396322,-0.916168,-0.048695,0.129476,0.081528,-6.869245,-41.269806,-11.666126,,,,,,
1478477573.78,-0.079936,0.412701,-0.287803,0.531991,-1.662028,-0.473537,-0.073146,-0.401085,-0.913116,-0.047749,0.143211,0.122695,-6.869245,-41.269806,-11.666126,,,,,,
1478477573.79,-0.097357,0.421617,-0.291228,0.921537,-1.837656,-0.339850,-0.088691,-0.409237,-0.908108,-0.037850,0.203685,0.153621,-12.157959,-41.823811,-12.261812,,,,,,
1478477573.80,-0.118513,0.435031,-0.292550,1.369149,-2.151291,-0.223845,-0.107223,-0.421439,-0.900496,-0.020325,0.253699,0.176924,-12.157959,-41.823811,-12.261812,,,,,,
1478477573.81,-0.144798,0.452281,-0.291749,1.709209,-2.586647,-0.122056,-0.129784,-0.437019,-0.890040,0.002144,0.300163,0.225077,-12.352650,-42.155590,-10.849770,,,,,,
1478477573.82,-0.178189,0.471368,-0.288579,1.861514,-3.207721,0.018178,-0.157918,-0.454106,-0.876841,0.036611,0.342976,0.341959,-12.352650,-42.155590,-10.849770,,,,,,
1478477573.83,-0.220451,0.490185,-0.281516,1.866598,-3.871760,0.307866,-0.192920,-0.470789,-0.860895,0.068134,0.397608,0.494699,-12.837570,-42.533131,-8.574896,,,,,,
1478477573.84,-0.271462,0.507233,-0.269593,1.796432,-4.446556,0.666095,-0.234379,-0.485761,-0.842082,0.093693,0.451841,0.630641,-12.837570,-42.533131,-8.574896,,,,,,
1478477573.85,-0.330087,0.521648,-0.252934,1.691094,-4.909839,0.974102,-0.281017,-0.498309,-0.820194,0.164546,0.568515,0.770328,-13.800014,-42.700340,-5.799976,,,,,,
1478477573.86,-0.396258,0.533201,-0.233149,1.576786,-5.512106,1.186210,-0.332391,-0.508292,-0.794453,0.199762,0.638648,0.785862,-13.800014,-42.700340,-5.799976,,,,,,
1478477573.87,-0.471787,0.540867,-0.210038,1.408175,-6.242888,1.494140,-0.389608,-0.514879,-0.763613,0.220357,0.644762,0.781756,-15.169417,-42.539970,-2.763842,,,,,,
1478477573.88,-0.556703,0.542511,-0.183802,1.114537,-6.965252,1.887201,-0.452521,-0.516288,-0.727098,0.232047,0.648292,0.740693,-15.169417,-42.539970,-2.763842,,,,,,
1478477573.89,-0.648963,0.537532,-0.154944,0.903602,-7.467376,2.325570,-0.519131,-0.512017,-0.684355,0.226253,0.674508,0.643828,-16.733311,-42.036537,0.570053,,,,,,
1478477573.90,-0.743446,0.526654,-0.125288,0.715104,-7.542336,2.573084,-0.585114,-0.502644,-0.636389,0.179108,0.675114,0.472051,-16.733311,-42.036537,0.570053,,,,,,
1478477573.91,-0.832713,0.510285,-0.098861,0.342441,-7.106394,2.670726,-0.645518,-0.488426,-0.587151,0.099558,0.655510,0.291085,-18.439850,-41.118389,4.080326,,,,,,
1478477573.92,-0.911133,0.487553,-0.078430,-0.231743,-6.314352,2.777844,-0.698126,-0.468466,-0.541443,0.042639,0.597952,0.213730,-18.439850,-41.118389,4.080326,,,,,,
1478477573.93,-0.975528,0.459447,-0.065075,-0.793077,-5.272081,2.844131,-0.742133,-0.443452,-0.502582,0.028403,0.523836,0.191623,-19.933065,-40.010605,7.015948,,,,,,
1478477573.94,-1.024868,0.427259,-0.059154,-1.373952,-4.171346,2.856410,-0.777817,-0.414378,-0.472537,0.049912,0.522028,0.189898,-20.679234,-39.458015,7.926743,,,,,,
1478477573.95,-1.059840,0.391435,-0.060687,-1.983159,-3.147640,2.890430,-0.806300,-0.381515,-0.452024,0.096400,0.517639,0.218748,-20.679234,-39.458015,7.926743,,,,,,
1478477573.96,-1.085331,0.351940,-0.068250,-2.504852,-2.570622,3.016654,-0.830246,-0.344719,-0.438019,0.164123,0.500084,0.271118,-22.342091,-38.431309,8.441838,,,,,,
1478477573.97,-1.106947,0.308893,-0.079861,-2.878825,-2.394112,3.227810,-0.852009,-0.304004,-0.426220,0.227100,0.515186,0.278545,-22.342091,-38.431309,8.441838,,,,,,
1478477573.99,-1.130035,0.261895,-0.092947,-3.058043,-2.640720,3.598548,-0.873587,-0.258912,-0.412081,0.278754,0.569016,0.227648,-24.357000,-37.362892,7.625614,,,,,,
1478477574.00,-1.159627,0.212272,-0.105229,-2.938477,-3.253340,3.885341,-0.896080,-0.210681,-0.390710,0.282707,0.537220,0.077829,-24.357000,-37.362892,7.625614,,,,,,
1478477574.01,-1.196683,0.162844,-0.115200,-2.551570,-3.835883,4.023406,-0.918517,-0.162125,-0.360612,0.229675,0.454773,-0.161589,-26.755695,-35.846165,6.825276,,,,,,
1478477574.02,-1.239461,0.112755,-0.121058,-2.015523,-4.258587,4.376781,-0.939604,-0.112516,-0.323240,-0.118684,0.308973,-0.601046,-26.755695,-35.846165,6.825276,,,,,,
1478477574.03,-1.285068,0.062799,-0.121684,-1.312770,-4.288789,4.500270,-0.957565,-0.062758,-0.281301,-0.270630,0.149062,-0.823191,-29.206272,-33.765942,7.365739,,,,,,
1478477574.04,-1.326701,0.017240,-0.117801,-0.615141,-3.810744,4.184620,-0.970212,-0.017239,-0.241643,-0.381839,0.187222,-0.810329,-29.206272,-33.765942,7.365739,,,,,,
1478477574.05,-1.362141,-0.022840,-0.110351,-0.016947,-3.245874,3.767953,-0.978055,0.022838,-0.207090,-0.511248,0.113637,-0.831133,-31.491737,-31.152863,9.228693,,,,,,
1478477574.06,-1.392881,-0.058717,-0.099584,0.449436,-2.893220,3.491554,-0.982519,0.058684,-0.176673,-0.600337,-0.007689,-0.793267,-31.491737,-31.152863,9.228693,,,,,,
1478477574.07,-1.421013,-0.092591,-0.086792,0.733249,-2.729446,3.338354,-0.984568,0.092459,-0.148585,-0.674169,-0.071005,-0.738592,-33.139420,-28.607084,11.437340,,,,,,
1478477574.08,-1.445952,-0.124732,-0.073508,0.840113,-2.418088,3.155578,-0.984509,0.124409,-0.123553,-0.756229,-0.118626,-0.662869,-33.139420,-28.607084,11.437340,,,,,,
1478477574.09,-1.466106,-0.156048,-0.061989,0.677837,-1.944692,3.069204,-0.982441,0.155415,-0.103230,-0.811795,-0.165242,-0.536968,-34.333809,-26.073513,13.739021,,,,,,
1478477574.10,-1.480897,-0.187057,-0.054832,0.269632,-1.376213,2.970316,-0.978588,0.185968,-0.088212,-0.839466,-0.191293,-0.420364,-34.849762,-24.841917,14.689186,,,,,,
1478477574.11,-1.489897,-0.216751,-0.053545,-0.258298,-0.712372,2.769974,-0.973407,0.215057,-0.078920,-0.889813,-0.236801,-0.334135,-34.849762,-24.841917,14.689186,,,,,,
1478477574.12,-1.493194,-0.244069,-0.057988,-0.727008,-0.043733,2.483326,-0.967442,0.241653,-0.075227,-0.945644,-0.302398,-0.265074,-35.918716,-22.635157,15.649110,,,,,,
1478477574.13,-1.490386,-0.268670,-0.066871,-1.079694,0.646586,2.201668,-0.961010,0.265449,-0.077442,-0.992695,-0.330452,-0.228954,-35.918716,-22.635157,15.649110,,,,,,
1478477574.14,-1.482428,-0.290887,-0.078539,-1.276893,1.189132,1.956636,-0.954252,0.286802,-0.084546,-1.010500,-0.314328,-0.217730,-37.068340,-21.047504,15.176948,,,,,,
1478477574.15,-1.470986,-0.309832,-0.090074,-1.151017,1.468746,1.593156,-0.947645,0.304899,-0.094900,-0.957507,-0.298383,-0.238794,-37.068340,-21.047504,15.176948,,,,,,
1478477574.16,-1.457443,-0.326081,-0.098969,-0.909053,1.509889,1.434063,-0.941226,0.320333,-0.107150,-0.869916,-0.271886,-0.258175,-38.243156,-19.951809,13.666951,,,,,,
1478477574.17,-1.447095,-0.341243,-0.104556,-0.573763,1.017954,1.350317,-0.935139,0.334659,-0.116272,-0.624554,-0.276828,-0.388337,-38.243156,-19.951809,13.666951,,,,,,
1478477574.19,-1.440808,-0.354610,-0.105195,-0.089221,0.497653,1.217694,-0.929870,0.347225,-0.121558,-0.650040,-0.216899,-0.433740,-39.191101,-19.024261,12.228431,,,,,,
1478477574.20,-1.436827,-0.365276,-0.100320,0.414017,0.133979,1.002978,-0.925656,0.357207,-0.124757,-0.641254,-0.190322,-0.452788,-39.191101,-19.024261,12.228431,,,,,,
1478477574.21,-1.434239,-0.372663,-0.091354,0.773433,-0.116370,0.738894,-0.922691,0.364097,-0.126789,-0.663522,-0.218589,-0.449154,-39.748615,-18.053040,11.896830,,,,,,
1478477574.22,-1.432314,-0.377220,-0.080097,0.967465,-0.231996,0.511847,-0.920792,0.368338,-0.128335,-0.689270,-0.261877,-0.399894,-39.748615,-18.053040,11.896830,,,,,,
1478477574.23,-1.430132,-0.379476,-0.067784,1.069349,-0.211137,0.311827,-0.919685,0.370434,-0.130227,-0.677621,-0.263851,-0.327567,-39.968666,-17.272985,12.310534,,,,,,
1478477574.24,-1.426611,-0.379521,-0.055123,1.115854,-0.071931,0.116369,-0.919204,0.370475,-0.133462,-0.649384,-0.258690,-0.235678,-39.968666,-17.272985,12.310534,,,,,,
1478477574.25,-1.421244,-0.377641,-0.042794,1.091181,0.118625,-0.060134,-0.919161,0.368729,-0.138497,-0.619077,-0.241074,-0.148658,-40.018772,-16.766308,12.836980,,,,,,
1478477574.26,-1.414867,-0.374439,-0.031652,0.993908,0.243918,-0.175261,-0.919421,0.365751,-0.144538,-0.562375,-0.214475,-0.073037,-40.026176,-16.623688,12.998362,,,,,,
1478477574.27,-1.408473,-0.370810,-0.021945,0.874887,0.270685,-0.208092,-0.919782,0.362370,-0.150627,-0.487582,-0.186971,-0.005256,-40.026176,-16.623688,12.998362,,,,,,
1478477574.28,-1.402873,-0.367308,-0.013234,0.805899,0.218237,-0.197165,-0.920170,0.359104,-0.155987,-0.418133,-0.165150,0.035336,-40.031578,-16.508875,13.127411,,,,,,
1478477574.29,-1.398011,-0.363920,-0.004612,0.817871,0.152682,-0.187300,-0.920594,0.355940,-0.160668,-0.361419,-0.125334,0.038887,-40.031578,-16.508875,13.127411,,,,,,
1478477574.30,-1.393131,-0.360177,0.004671,0.898641,0.157109,-0.214417,-0.921104,0.352440,-0.165392,-0.325311,-0.073158,0.018892,-40.019951,-16.447376,13.239574,,,,,,
1478477574.31,-1.387723,-0.356299,0.015229,1.022388,0.167422,-0.176011,-0.921533,0.348808,-0.170619,-0.302436,-0.009041,-0.000982,-40.019951,-16.447376,13.239574,,,,,,
1478477574.32,-1.381454,-0.352211,0.026747,1.098806,0.232521,-0.215253,-0.921838,0.344974,-0.176659,-0.302055,0.042233,-0.044075,-39.994789,-16.354288,13.429571,,,,,,
1478477574.33,-1.376307,-0.346585,0.038535,1.144703,0.027415,-0.349718,-0.922806,0.339688,-0.181773,-0.272186,0.071994,-0.073674,-39.994789,-16.354288,13.429571,,,,,,
1478477574.34,-1.375414,-0.340658,0.050344,1.147309,-0.399341,-0.335118,-0.924602,0.334107,-0.182985,-0.130025,0.081710,-0.074370,-39.952141,-16.255543,13.674172,,,,,,
1478477574.35,-1.377974,-0.335550,0.062511,1.171502,-0.688120,-0.242816,-0.926730,0.329289,-0.180942,-0.094052,0.076031,-0.051907,-39.952141,-16.255543,13.674172,,,,,,
1478477574.36,-1.381898,-0.331136,0.075255,1.219142,-0.781028,-0.190275,-0.928852,0.325117,-0.177575,-0.091686,0.079927,-0.049170,-39.710823,-16.171940,14.453995,,,,,,
1478477574.37,-1.385729,-0.326066,0.088614,1.289634,-0.766217,-0.282718,-0.931133,0.320319,-0.174317,-0.155323,0.052362,-0.035919,-39.710823,-16.171940,14.453995,,,,,,
1478477574.38,-1.388972,-0.319159,0.102344,1.352068,-0.711094,-0.467941,-0.933848,0.313768,-0.171693,-0.220648,0.024779,0.005158,-39.392391,-15.966902,15.514406,,,,,,
1478477574.40,-1.392207,-0.310375,0.116493,1.429187,-0.740177,-0.629456,-0.937074,0.305416,-0.169154,-0.249755,0.027409,0.008159,-39.392391,-15.966902,15.514406,,,,,,
1478477574.41,-1.395188,-0.300183,0.131124,1.490021,-0.638637,-0.748031,-0.940590,0.295695,-0.166895,-0.250694,0.018544,-0.038885,-38.978825,-15.920616,16.570583,,,,,,
1478477574.42,-1.395222,-0.290968,0.141005,0.718196,-0.202650,-0.647567,-0.943239,0.286880,-0.167331,-0.180754,0.022111,0.100330,-38.978825,-15.920616,16.570583,,,,,,
1478477574.43,-1.405346,-0.288652,0.133630,-1.020504,-0.922850,-0.223893,-0.945538,0.284661,-0.157882,-0.049747,0.025429,0.374679,-38.564850,-16.051979,17.392111,,,,,,
1478477574.44,-1.417102,-0.289908,0.116037,-1.689307,-0.427937,-0.145013,-0.946974,0.285864,-0.146702,0.322661,-0.074789,1.166004,-38.368301,-16.300854,17.594173,,,,,,
1478477574.45,-1.416792,-0.289878,0.099278,-1.404688,0.770670,-0.267839,-0.946937,0.285835,-0.146996,0.160118,0.029549,1.166802,-38.368301,-16.300854,17.594173,,,,,,
1478477574.46,-1.407367,-0.287480,0.088367,-0.763683,1.244640,-0.434610,-0.946183,0.283537,-0.156025,-0.087371,0.122698,0.629963,-38.272633,-17.022688,17.112358,,,,,,
1478477574.47,-1.396672,-0.280285,0.085953,0.117394,0.982331,-0.813607,-0.946445,0.276630,-0.166485,-0.215969,0.005215,0.124660,-38.272633,-17.022688,17.112358,,,,,,
1478477574.48,-1.392770,-0.267950,0.090674,0.800949,-0.061900,-1.145463,-0.949075,0.264755,-0.170768,-0.346259,-0.080963,-0.317254,-38.467583,-17.648954,16.004955,,,,,,
1478477574.49,-1.398031,-0.253594,0.102938,1.533011,-0.974054,-1.121949,-0.953606,0.250885,-0.166409,-0.325263,-0.077896,-0.592822,-38.467583,-17.648954,16.004955,,,,,,
1478477574.50,-1.405456,-0.240247,0.121903,2.042884,-1.173232,-0.896597,-0.958033,0.237942,-0.159861,-0.041417,-0.026990,-0.390051,-37.951710,-18.207319,16.600014,,,,,,
1478477574.51,-1.414088,-0.229220,0.143549,2.145899,-1.357682,-0.655291,-0.961911,0.227218,-0.151986,0.082364,0.059098,-0.178871,-37.951710,-18.207319,16.600014,,,,,,
1478477574.52,-1.425945,-0.220714,0.164382,1.992051,-1.640922,-0.467536,-0.965523,0.218927,-0.140844,0.163048,0.113273,-0.016841,-37.182159,-18.117907,18.347416,,,,,,
1478477574.53,-1.441373,-0.213876,0.184523,1.940772,-1.964799,-0.373278,-0.969043,0.212249,-0.126122,0.138949,0.089249,0.026482,-37.182159,-18.117907,18.347416,,,,,,
1478477574.54,-1.458313,-0.207439,0.205532,2.040953,-2.007507,-0.369884,-0.972378,0.205954,-0.109840,0.041439,0.007715,-0.065193,-36.308769,-17.656857,20.428118,,,,,,
1478477574.55,-1.473594,-0.201288,0.227073,2.045782,-1.842990,-0.371365,-0.975185,0.199931,-0.095090,-0.084202,-0.029857,-0.076877,-36.308769,-17.656857,20.428118,,,,,,
1478477574.56,-1.490598,-0.195130,0.247299,1.883494,-2.065965,-0.442305,-0.977869,0.193894,-0.078592,-0.158193,-0.056381,-0.128379,-35.290737,-17.014328,22.637922,,,,,,
1478477574.57,-1.509794,-0.188395,0.264185,1.508880,-2.141524,-0.548233,-0.980479,0.187282,-0.059886,-0.207082,-0.160351,-0.188924,-35.290737,-17.014328,22.637922,,,,,,
1478477574.58,-1.532091,-0.180564,0.277470,1.234366,-2.405999,-0.763588,-0.983006,0.179584,-0.038067,-0.143032,-0.169132,0.008968,-34.095108,-16.475685,24.768419,,,,,,
1478477574.60,-1.548281,-0.168718,0.291231,1.371665,-1.439529,-1.178971,-0.985551,0.167918,-0.022194,-0.123076,-0.167644,-0.026832,-33.351608,-16.377665,25.823277,,,,,,
1478477574.61,-1.553680,-0.156075,0.304737,1.201306,-0.612373,-1.134070,-0.987700,0.155442,-0.016907,-0.188554,-0.035981,0.116639,-33.351608,-16.377665,25.823277,,,,,,
1478477574.62,-1.562107,-0.145966,0.312745,0.624442,-1.043403,-0.881246,-0.989329,0.145448,-0.008597,-0.065542,-0.122392,0.086447,-32.269684,-16.426573,27.133636,,,,,,
1478477574.63,-1.572903,-0.138907,0.317603,0.441301,-1.008492,-0.607301,-0.990366,0.138461,0.002086,-0.025290,-0.222461,-0.058193,-32.269684,-16.426573,27.133636,,,,,,
1478477574.64,-1.578031,-0.133238,0.321975,0.390504,-0.410744,-0.549443,-0.991111,0.132844,0.007170,0.056709,-0.218430,0.023088,-31.405384,-16.615616,28.018250,,,,,,
1478477574.65,-1.579072,-0.125342,0.325153,0.254220,-0.045538,-0.838434,-0.992121,0.125014,0.008210,0.133601,-0.101637,0.050231,-31.405384,-16.615616,28.018250,,,,,,
1478477574.66,-1.578561,-0.114667,0.326509,0.080579,-0.010122,-1.054941,-0.993403,0.114416,0.007713,0.184413,-0.038030,0.054619,-30.975912,-16.830948,28.365669,,,,,,
1478477574.67,-1.580129,-0.103204,0.327673,0.128790,-0.178911,-1.095549,-0.994636,0.103021,0.009283,0.250388,-0.101785,0.030756,-30.975912,-16.830948,28.365669,,,,,,
1478477574.68,-1.581984,-0.092589,0.331174,0.411071,-0.225388,-0.955779,-0.995654,0.092457,0.011140,0.249789,-0.017170,-0.012269,-30.557919,-17.447136,28.446621,,,,,,
1478477574.69,-1.586681,-0.087211,0.340262,1.022353,-0.691841,-0.347930,-0.996074,0.087101,0.015824,0.305537,0.092953,-0.122056,-30.557919,-17.447136,28.446621,,,,,,
1478477574.70,-1.598684,-0.088272,0.356480,1.705622,-1.447788,0.178768,-0.995719,0.088158,0.027776,0.402808,0.154076,-0.254048,-30.052874,-17.583036,28.897417,,,,,,
1478477574.71,-1.615175,-0.092779,0.379366,2.328327,-1.834143,0.390512,-0.994719,0.092646,0.044173,0.522261,0.234609,-0.279296,-30.052874,-17.583036,28.897417,,,,,,
1478477574.72,-1.631683,-0.099510,0.405451,2.512261,-1.756571,0.561108,-0.993209,0.099346,0.060548,0.573577,0.288380,-0.234666,-29.176445,-16.291424,30.507765,,,,,,
1478477574.73,-1.645603,-0.109896,0.430273,2.362673,-1.508268,0.923920,-0.991188,0.109675,0.074286,0.545555,0.304936,-0.094824,-28.671906,-15.321889,31.473173,,,,,,
1478477574.74,-1.655809,-0.124586,0.451521,2.008075,-1.070037,1.348020,-0.988666,0.124264,0.084252,0.530597,0.323368,0.085898,-28.671906,-15.321889,31.473173,,,,,,
1478477574.75,-1.660164,-0.144668,0.466253,1.380348,-0.439392,1.929275,-0.985605,0.144164,0.088317,0.480157,0.371202,0.209627,-28.037121,-13.176435,32.980305,,,,,,
1478477574.76,-1.657385,-0.167762,0.473455,0.708465,0.414290,2.135738,-0.982267,0.166976,0.085266,0.457044,0.451081,0.337647,-28.037121,-13.176435,32.980305,,,,,,
1478477574.77,-1.643558,-0.189248,0.474212,0.076391,1.570317,2.007755,-0.979547,0.188120,0.071399,0.395944,0.532492,0.443264,-28.379890,-11.174362,33.423264,,,,,,
1478477574.78,-1.624274,-0.210457,0.469251,-0.442730,1.992164,2.059368,-0.976537,0.208907,0.052273,0.031927,0.341706,0.357075,-28.379890,-11.174362,33.423264,,,,,,
1478477574.79,-1.604262,-0.231535,0.462016,-0.601366,2.067069,2.009209,-0.972770,0.229472,0.032567,-0.076561,0.314351,0.286250,-29.949394,-9.960704,32.422482,,,,,,
1478477574.81,-1.584729,-0.250965,0.455423,-0.542534,1.959084,1.805837,-0.968579,0.248339,0.013496,-0.154040,0.438932,0.157509,-29.949394,-9.960704,32.422482,,,,,,
1478477574.82,-1.568741,-0.267518,0.450606,-0.392292,1.505075,1.493112,-0.964428,0.264339,-0.001982,-0.325947,0.391698,-0.008623,-31.693640,-9.081923,30.990822,,,,,,
1478477574.83,-1.558748,-0.280641,0.448205,-0.169379,0.836358,1.176476,-0.960808,0.276972,-0.011576,-0.466712,0.293081,-0.133443,-31.693640,-9.081923,30.990822,,,,,,
1478477574.84,-1.555504,-0.292413,0.448701,0.088456,0.113644,1.127396,-0.957439,0.288264,-0.014643,-0.418171,0.293279,-0.261206,-32.802803,-8.336221,30.031363,,,,,,
1478477574.85,-1.558517,-0.305270,0.451448,0.278514,-0.492325,1.263014,-0.953694,0.300551,-0.011711,-0.265682,0.266771,-0.262443,-32.802803,-8.336221,30.031363,,,,,,
1478477574.87,-1.571289,-0.331967,0.458467,0.299149,-0.688268,1.196712,-0.945403,0.325903,0.000465,-0.216920,0.274820,-0.274010,-32.976189,-7.440686,30.076670,,,,,,
1478477574.86,-1.564645,-0.319020,0.455105,0.314898,-0.738584,1.308169,-0.949525,0.313636,-0.005841,-0.212798,0.287087,-0.267703,-32.976189,-7.440686,30.076670,,,,,,
1478477574.88,-1.572461,-0.342870,0.463023,0.458655,-0.056008,0.979845,-0.941792,0.336191,0.001568,-0.309413,0.229650,-0.204052,-32.706470,-6.365047,30.613266,,,,,,
