timestamp(unix),attitude_roll(radians),attitude_pitch(radians),attitude_yaw(radians),rotation_rate_x(radians/s),rotation_rate_y(radians/s),rotation_rate_z(radians/s),gravity_x(G),gravity_y(G),gravity_z(G),user_acc_x(G),user_acc_y(G),user_acc_z(G),magnetic_field_x(microteslas),magnetic_field_y(microteslas),magnetic_field_z(microteslas),latitude(degree),longitude(degree),altitude(meter),speed(m/s),course(degree),timestamp(unix)
1478536497.64,0.013258,0.434164,2.729235,-0.303666,-0.289746,0.125242,0.012028,-0.420652,-0.907142,0.029080,-0.045550,0.014946,-20.505154,-19.811121,-30.733505,,,,,,
1478536497.65,0.009685,0.431401,2.731141,-0.249613,-0.253964,0.173250,0.008798,-0.418144,-0.908338,0.032309,-0.048058,0.016142,-20.505154,-19.811121,-30.733505,,,,,,
1478536497.66,0.006217,0.429310,2.733417,-0.185306,-0.237713,0.198433,0.005653,-0.416244,-0.909236,0.015633,-0.034776,0.018427,-20.682495,-19.606924,-30.745621,,,,,,
1478536497.67,0.003007,0.427881,2.735623,-0.122437,-0.207533,0.184114,0.002736,-0.414943,-0.909843,0.013622,-0.003636,0.013115,-20.682495,-19.606924,-30.745621,,,,,,
1478536497.68,0.000425,0.426559,2.737528,-0.085164,-0.142749,0.154124,0.000386,-0.413740,-0.910395,-0.002157,0.016752,0.011362,-20.915779,-19.394293,-30.722662,,,,,,
1478536497.69,-0.001141,0.425578,2.739104,-0.095981,-0.067168,0.129389,-0.001039,-0.412847,-0.910800,-0.016112,0.019308,0.015124,-20.915779,-19.394293,-30.722662,,,,,,
1478536497.70,-0.001675,0.424229,2.740371,-0.143521,0.018101,0.102734,-0.001526,-0.411618,-0.911355,-0.021683,0.021039,0.019525,-21.088312,-19.246662,-30.697546,,,,,,
1478536497.71,-0.001653,0.422158,2.741362,-0.214528,0.045059,0.081631,-0.001507,-0.409730,-0.912206,-0.027606,0.026277,0.026067,-21.088312,-19.246662,-30.697546,,,,,,
1478536497.72,-0.002975,0.419337,2.742498,-0.275973,-0.010612,0.039986,-0.002717,-0.407155,-0.913355,-0.034225,0.018254,0.050226,-21.137987,-19.111986,-30.747482,,,,,,
1478536497.74,-0.002906,0.416130,2.742285,-0.310274,0.002105,-0.025726,-0.002658,-0.404223,-0.914656,-0.038327,0.029254,0.031447,-21.137987,-19.111986,-30.747482,,,,,,
1478536497.75,-0.003938,0.413165,2.742019,-0.271019,-0.148537,-0.025069,-0.003607,-0.401510,-0.915848,0.009299,-0.011012,0.010528,-21.185087,-18.911797,-30.838718,,,,,,
1478536497.76,-0.006054,0.410980,2.741756,-0.179322,-0.230874,-0.021129,-0.005550,-0.399508,-0.916713,-0.000813,-0.008466,-0.007619,-21.185087,-18.911797,-30.838718,,,,,,
1478536497.77,-0.008658,0.410278,2.741622,-0.047474,-0.280951,-0.001210,-0.007940,-0.398864,-0.916976,0.006688,-0.013444,-0.014512,-21.241901,-18.741802,-30.903347,,,,,,
1478536497.78,-0.012079,0.410551,2.741807,0.048998,-0.330022,0.020634,-0.011075,-0.399115,-0.916834,0.010159,-0.017466,-0.030477,-21.311710,-18.703400,-30.878540,,,,,,
1478536497.79,-0.015857,0.411681,2.742116,0.122367,-0.340762,0.026780,-0.014531,-0.400151,-0.916334,0.021840,-0.003307,-0.022219,-21.311710,-18.703400,-30.878540,,,,,,
1478536497.80,-0.018566,0.413110,2.742630,0.135009,-0.198669,0.050319,-0.017003,-0.401459,-0.915719,-0.010615,0.013886,-0.001319,-21.523075,-18.713114,-30.725674,,,,,,
1478536497.81,-0.021021,0.414261,2.743881,0.082578,-0.121465,0.096092,-0.019242,-0.402514,-0.915212,-0.015396,0.010180,0.026296,-21.523075,-18.713114,-30.725674,,,,,,
1478536497.82,-0.021112,0.413716,2.745410,-0.093761,0.109520,0.148517,-0.019329,-0.402015,-0.915429,-0.042301,0.010123,0.030374,-21.717512,-18.773420,-30.551575,,,,,,
1478536497.83,-0.020052,0.412009,2.747404,-0.172799,0.194084,0.182742,-0.018373,-0.400451,-0.916134,-0.047133,-0.025330,0.048336,-21.717512,-18.773420,-30.551575,,,,,,
1478536497.84,-0.018292,0.409873,2.749420,-0.207460,0.254536,0.175089,-0.016776,-0.398493,-0.917018,-0.035927,-0.031439,0.035014,-21.748123,-18.686409,-30.583126,,,,,,
1478536497.85,-0.017349,0.408145,2.751466,-0.231279,0.229957,0.139594,-0.015923,-0.396907,-0.917721,-0.028358,-0.013020,0.029888,-21.748123,-18.686409,-30.583126,,,,,,
1478536497.86,-0.015883,0.405806,2.752597,-0.213081,0.166186,0.089422,-0.014592,-0.394760,-0.918668,-0.026561,0.001739,0.012480,-21.696114,-18.492157,-30.737751,,,,,,
1478536497.87,-0.014771,0.403859,2.753248,-0.173564,0.121009,0.049056,-0.013582,-0.392970,-0.919451,-0.017027,0.013697,0.004916,-21.696114,-18.492157,-30.737751,,,,,,
1478536497.88,-0.014077,0.402396,2.753736,-0.127674,0.074327,0.046785,-0.012953,-0.391624,-0.920034,-0.013216,0.018730,-0.001353,-21.617476,-18.304260,-30.905165,,,,,,
1478536497.89,-0.013425,0.401458,2.754303,-0.073513,0.091942,0.049723,-0.012357,-0.390761,-0.920409,-0.000964,0.007139,-0.010438,-21.617476,-18.304260,-30.905165,,,,,,
1478536497.90,-0.012169,0.401053,2.754746,0.002974,0.153102,0.037530,-0.011203,-0.390388,-0.920582,-0.014417,0.001243,-0.015010,-21.576546,-18.192490,-30.999620,,,,,,
1478536497.92,-0.006785,0.404788,2.756397,0.287901,0.362095,0.094532,-0.006237,-0.393824,-0.919165,-0.032765,-0.006338,-0.049311,-21.501554,-18.159061,-31.071241,,,,,,
1478536497.91,-0.010009,0.402133,2.755379,0.140989,0.260077,0.062245,-0.009210,-0.391382,-0.920182,-0.029792,-0.008780,-0.048293,-21.501554,-18.159061,-31.071241,,,,,,
1478536497.93,-0.004258,0.408166,2.757926,0.388038,0.326639,0.117427,-0.003908,-0.396927,-0.917842,-0.028547,0.001999,-0.065312,-21.419132,-18.201860,-31.103109,,,,,,
1478536497.95,-0.001833,0.412445,2.759158,0.411342,0.261391,0.099241,-0.001680,-0.400851,-0.916142,-0.030776,0.005923,-0.067012,-21.419132,-18.201860,-31.103109,,,,,,
1478536497.96,0.000752,0.417014,2.759579,0.441447,0.272253,0.006282,0.000688,-0.405032,-0.914302,-0.027238,0.021502,-0.000859,-21.259777,-18.367418,-31.115116,,,,,,
1478536497.97,0.003608,0.421382,2.758494,0.393983,0.195154,-0.123106,0.003293,-0.409022,-0.912519,-0.062894,0.060359,0.051373,-21.259777,-18.367418,-31.115116,,,,,,
1478536497.98,0.003883,0.424244,2.756125,0.229153,-0.170988,-0.229686,0.003538,-0.411632,-0.911343,-0.119734,0.065502,0.052823,-21.098692,-18.636059,-31.064980,,,,,,
1478536497.99,-0.002637,0.426848,2.753916,0.169163,-0.536499,-0.337210,-0.002401,-0.414003,-0.910272,-0.090236,0.007860,0.073633,-21.098692,-18.636059,-31.064980,,,,,,
1478536498.00,-0.008529,0.429757,2.749232,0.324227,-0.794508,-0.426280,-0.007753,-0.416650,-0.909034,-0.024702,-0.035971,0.116004,-21.174154,-18.906193,-30.849659,,,,,,
1478536498.01,-0.014994,0.435309,2.743976,0.594780,-0.825911,-0.468449,-0.013595,-0.421691,-0.906638,-0.006440,-0.027604,0.063178,-21.174154,-18.906193,-30.849659,,,,,,
1478536498.02,-0.021916,0.443606,2.738404,0.835585,-0.919383,-0.503868,-0.019793,-0.429200,-0.902993,-0.058347,0.033524,-0.012290,-21.472469,-19.273941,-30.412804,,,,,,
1478536498.03,-0.029931,0.453840,2.732315,0.998193,-1.030383,-0.569554,-0.026897,-0.438420,-0.898368,-0.107121,0.079823,-0.079339,-21.472469,-19.273941,-30.412804,,,,,,
1478536498.04,-0.038947,0.465476,2.724731,1.109914,-1.254641,-0.732180,-0.034795,-0.448849,-0.892930,-0.135081,0.099712,-0.065612,-21.835503,-19.985186,-29.686588,,,,,,
1478536498.05,-0.052513,0.477728,2.715218,1.124347,-1.896245,-0.894071,-0.046613,-0.459763,-0.886818,-0.163074,0.059555,0.016700,-21.835503,-19.985186,-29.686588,,,,,,
1478536498.06,-0.072129,0.489657,2.704057,1.044541,-2.451932,-1.046508,-0.063598,-0.470323,-0.880200,-0.216324,0.065782,-0.025959,-22.288261,-20.964550,-28.656784,,,,,,
1478536498.07,-0.091346,0.499135,2.691191,0.709961,-2.347726,-1.176969,-0.080090,-0.478667,-0.874336,-0.188022,0.120772,0.092979,-22.288261,-20.964550,-28.656784,,,,,,
1478536498.08,-0.105508,0.504022,2.677030,0.225461,-1.856797,-1.226592,-0.092216,-0.482952,-0.870778,-0.125969,0.159252,0.204350,-23.162893,-22.059935,-27.098526,,,,,,
1478536498.09,-0.113054,0.504347,2.662726,-0.198483,-1.201988,-1.162820,-0.098767,-0.483236,-0.869901,-0.069660,0.132040,0.243986,-23.512659,-22.519066,-26.410921,,,,,,
1478536498.10,-0.113679,0.500841,2.649899,-0.537122,-0.463683,-0.967995,-0.099503,-0.480163,-0.871517,-0.025177,0.057861,0.242123,-23.512659,-22.519066,-26.410921,,,,,,
1478536498.11,-0.108760,0.493399,2.640263,-0.881052,0.180612,-0.628165,-0.095599,-0.473622,-0.875524,0.024783,-0.023403,0.229010,-23.696133,-23.055233,-25.776730,,,,,,
1478536498.12,-0.101359,0.481666,2.635047,-1.248916,0.547152,-0.217763,-0.089673,-0.463256,-0.881676,0.073971,-0.096223,0.202507,-23.696133,-23.055233,-25.776730,,,,,,
1478536498.13,-0.093160,0.465788,2.633510,-1.595364,0.765129,0.081395,-0.083115,-0.449127,-0.889593,0.137360,-0.149414,0.146857,-23.352938,-22.971802,-26.161556,,,,,,
1478536498.14,-0.083499,0.446856,2.633879,-1.851156,0.993670,0.219793,-0.075213,-0.432132,-0.898668,0.157717,-0.138302,0.118685,-23.352938,-22.971802,-26.161556,,,,,,
1478536498.16,-0.072258,0.425732,2.635513,-2.029467,1.169818,0.320946,-0.065750,-0.412987,-0.908360,0.131501,0.000023,0.116612,-22.949837,-22.131454,-27.221207,,,,,,
1478536498.17,-0.061426,0.403880,2.637850,-2.055077,1.070584,0.338196,-0.056448,-0.392989,-0.917809,0.091162,0.058715,0.105187,-22.949837,-22.131454,-27.221207,,,,,,
1478536498.18,-0.054049,0.383459,2.639840,-1.868306,0.660527,0.264415,-0.050099,-0.374131,-0.926022,0.074040,0.025803,0.044583,-22.429382,-20.833130,-28.642517,,,,,,
1478536498.19,-0.050890,0.366536,2.640640,-1.508367,0.227441,0.112577,-0.047489,-0.358384,-0.932366,0.054600,-0.013061,-0.053047,-22.429382,-20.833130,-28.642517,,,,,,
1478536498.20,-0.050063,0.354000,2.639106,-1.094606,-0.025113,-0.144553,-0.046939,-0.346652,-0.936819,-0.001828,-0.054822,-0.138819,-22.079615,-19.533049,-29.806726,,,,,,
1478536498.21,-0.049964,0.345793,2.634939,-0.704729,-0.149280,-0.391931,-0.046987,-0.338943,-0.939633,-0.051784,-0.062913,-0.184451,-22.079615,-19.533049,-29.806726,,,,,,
1478536498.22,-0.050305,0.341137,2.628801,-0.400778,-0.259768,-0.563514,-0.047386,-0.334559,-0.941183,-0.082909,-0.008642,-0.182597,-22.020670,-18.811255,-30.310350,,,,,,
1478536498.23,-0.051465,0.339020,2.621854,-0.182779,-0.348271,-0.617743,-0.048514,-0.332563,-0.941832,-0.066873,0.007505,-0.170793,-22.020670,-18.811255,-30.310350,,,,,,
1478536498.24,-0.052822,0.338695,2.615287,-0.021283,-0.320502,-0.569275,-0.049798,-0.332256,-0.941874,-0.023506,0.013043,-0.136618,-21.965557,-18.740789,-30.393873,,,,,,
1478536498.25,-0.053783,0.339593,2.610203,0.082967,-0.233392,-0.413481,-0.050687,-0.333103,-0.941527,0.012036,0.024998,-0.076387,-21.956816,-18.836395,-30.341042,,,,,,
1478536498.26,-0.055478,0.340549,2.607362,0.059328,-0.246357,-0.213691,-0.052265,-0.334005,-0.941121,0.029667,0.034582,-0.018275,-21.956816,-18.836395,-30.341042,,,,,,
1478536498.27,-0.056761,0.339484,2.605883,-0.176417,-0.143585,-0.104769,-0.053492,-0.333001,-0.941408,0.024104,0.044655,0.055818,-21.950237,-19.074440,-30.196741,,,,,,
1478536498.28,-0.058002,0.335531,2.604812,-0.448938,-0.175190,-0.071376,-0.054737,-0.329271,-0.942648,0.019581,0.043794,0.144949,-21.950237,-19.074440,-30.196741,,,,,,
1478536498.29,-0.061103,0.329050,2.603501,-0.675593,-0.396570,-0.084403,-0.057789,-0.323144,-0.944584,0.040577,0.013101,0.160831,-22.008570,-19.062731,-30.161659,,,,,,
1478536498.30,-0.066082,0.320862,2.601727,-0.818197,-0.556642,-0.121779,-0.062664,-0.315385,-0.946893,0.042995,-0.020431,0.126962,-22.008570,-19.062731,-30.161659,,,,,,
1478536498.31,-0.071622,0.311942,2.599244,-0.872096,-0.610882,-0.180512,-0.068107,-0.306908,-0.949299,0.026862,-0.026100,0.095799,-22.189211,-18.712091,-30.248753,,,,,,
1478536498.32,-0.077011,0.303283,2.596214,-0.821822,-0.588000,-0.218192,-0.073424,-0.298655,-0.951533,-0.001314,-0.019735,0.031397,-22.189211,-18.712091,-30.248753,,,,,,
1478536498.33,-0.081471,0.296043,2.593289,-0.661150,-0.473387,-0.203090,-0.077840,-0.291738,-0.953326,-0.009135,-0.009883,-0.049757,-22.502224,-18.247967,-30.301023,,,,,,
1478536498.34,-0.084620,0.290904,2.590953,-0.452621,-0.338942,-0.159423,-0.080968,-0.286818,-0.954557,-0.004664,0.017180,-0.065859,-22.502224,-18.247967,-30.301023,,,,,,
1478536498.36,-0.087603,0.286441,2.589148,-0.277112,-0.328188,-0.136221,-0.083926,-0.282540,-0.955577,-0.002896,0.048546,-0.027211,-22.741129,-17.900616,-30.329844,,,,,,
1478536498.37,-0.090898,0.284680,2.587352,-0.150400,-0.374263,-0.154464,-0.087119,-0.280850,-0.955789,-0.005044,0.060620,-0.009482,-22.741129,-17.900616,-30.329844,,,,,,
1478536498.38,-0.095006,0.284510,2.585365,0.014688,-0.475634,-0.187163,-0.091049,-0.280687,-0.955471,-0.003998,0.046526,0.017071,-22.904730,-17.721972,-30.311638,,,,,,
1478536498.39,-0.100984,0.286854,2.583932,0.291853,-0.664980,-0.119869,-0.096693,-0.282936,-0.954252,-0.008257,0.043724,0.034620,-22.904730,-17.721972,-30.311638,,,,,,
1478536498.40,-0.111201,0.291508,2.584307,0.534779,-0.973641,-0.006903,-0.106290,-0.287397,-0.951896,-0.043918,0.078382,0.044410,-23.127380,-17.791889,-30.100882,,,,,,
1478536498.41,-0.122900,0.297010,2.585049,0.498395,-1.140829,-0.004606,-0.117223,-0.292663,-0.949003,-0.082972,0.101928,0.085600,-23.127380,-17.791889,-30.100882,,,,,,
1478536498.42,-0.136949,0.299823,2.584047,0.153550,-1.444434,-0.176163,-0.130431,-0.295351,-0.946444,-0.102678,0.072038,0.057589,-23.684288,-18.079475,-29.490292,,,,,,
1478536498.43,-0.150632,0.298774,2.579834,-0.240518,-1.343292,-0.425170,-0.143415,-0.294349,-0.944876,-0.052630,-0.021828,0.025885,-24.050304,-18.220436,-29.104794,,,,,,
1478536498.44,-0.157611,0.295455,2.573071,-0.447635,-0.670417,-0.587920,-0.150158,-0.291175,-0.944812,-0.045887,-0.025002,0.025821,-24.050304,-18.220436,-29.104794,,,,,,
1478536498.45,-0.159717,0.291202,2.566471,-0.511153,-0.337709,-0.492658,-0.152343,-0.287104,-0.945708,-0.034790,-0.047460,0.059279,-24.716412,-18.327377,-28.472733,,,,,,
1478536498.46,-0.161806,0.286442,2.562157,-0.498507,-0.306298,-0.250168,-0.154537,-0.282541,-0.946725,0.018795,0.009165,-0.019553,-24.716412,-18.327377,-28.472733,,,,,,
1478536498.47,-0.162952,0.282136,2.560995,-0.394260,-0.060789,0.039089,-0.155817,-0.278407,-0.947740,0.067225,0.091808,-0.072051,-24.783962,-18.298786,-28.432375,,,,,,
1478536498.48,-0.161656,0.278245,2.563135,-0.323406,0.243984,0.315825,-0.154762,-0.274668,-0.949003,0.080116,0.101786,-0.036212,-24.783962,-18.298786,-28.432375,,,,,,
1478536498.49,-0.156370,0.271146,2.566547,-0.384756,0.344876,0.480029,-0.150043,-0.267835,-0.951710,0.090214,0.092603,0.040348,-24.841066,-18.064486,-28.532194,,,,,,
1478536498.50,-0.154114,0.265630,2.570239,-0.494329,0.293259,0.364032,-0.148121,-0.262517,-0.953491,0.105915,0.069173,0.063461,-24.841066,-18.064486,-28.532194,,,,,,
1478536498.51,-0.153500,0.258103,2.570042,-0.787899,-0.122024,-0.018302,-0.147833,-0.255247,-0.955507,0.067603,0.012235,0.094225,-24.728022,-17.552803,-28.946751,,,,,,
1478536498.52,-0.160722,0.249895,2.564777,-0.837455,-0.989215,-0.456941,-0.155061,-0.247302,-0.956451,0.068253,-0.059324,0.196990,-24.728022,-17.552803,-28.946751,,,,,,
1478536498.53,-0.168854,0.243514,2.556545,-0.675653,-0.894685,-0.697812,-0.163095,-0.241114,-0.956694,0.056650,-0.210729,-0.101137,-24.791504,-17.091103,-29.167892,,,,,,
1478536498.54,-0.173042,0.239751,2.547174,-0.442931,-0.523746,-0.817227,-0.167254,-0.237461,-0.956890,-0.022367,-0.176007,-0.180744,-24.791504,-17.091103,-29.167892,,,,,,
1478536498.55,-0.174528,0.238613,2.537699,-0.196050,-0.309334,-0.843038,-0.168724,-0.236355,-0.956906,-0.107537,0.052746,-0.285694,-25.118670,-16.988514,-28.947075,,,,,,
1478536498.57,-0.174301,0.239833,2.529186,0.029729,-0.123079,-0.771788,-0.168456,-0.237540,-0.956659,-0.038590,0.022758,-0.311468,-25.118670,-16.988514,-28.947075,,,,,,
1478536498.58,-0.173349,0.241962,2.522254,0.092564,-0.067061,-0.624652,-0.167458,-0.239608,-0.956319,0.025643,-0.002229,-0.249461,-25.040283,-17.269854,-28.848339,,,,,,
1478536498.59,-0.174167,0.243236,2.517404,0.016135,-0.246241,-0.403196,-0.168187,-0.240845,-0.955880,0.092610,0.045929,-0.144492,-24.933971,-17.481438,-28.812962,,,,,,
1478536498.60,-0.178298,0.242819,2.514810,-0.115014,-0.519796,-0.174804,-0.172152,-0.240440,-0.955276,0.156222,0.064750,-0.062943,-24.933971,-17.481438,-28.812962,,,,,,
1478536498.61,-0.185254,0.240881,2.513731,-0.222798,-0.735538,-0.039035,-0.178878,-0.238558,-0.954512,0.205368,0.027163,-0.006762,-24.889673,-17.740635,-28.692585,,,,,,
1478536498.62,-0.191086,0.238817,2.512408,-0.247145,-0.834735,-0.024225,-0.184535,-0.236554,-0.953934,0.198070,-0.027042,0.006500,-24.889673,-17.740635,-28.692585,,,,,,
1478536498.63,-0.199648,0.236969,2.511207,-0.170172,-0.834935,-0.091792,-0.192782,-0.234757,-0.952746,0.140979,-0.057922,-0.032804,-25.182531,-17.694717,-28.464497,,,,,,
1478536498.64,-0.207371,0.236453,2.509606,-0.040995,-0.739674,-0.150405,-0.200159,-0.234256,-0.951347,0.071268,-0.057614,-0.086526,-25.182531,-17.694717,-28.464497,,,,,,
1478536498.65,-0.213416,0.237558,2.507760,0.095165,-0.577645,-0.202685,-0.205851,-0.235330,-0.949866,0.016596,-0.054770,-0.109567,-25.648626,-17.622425,-28.090717,,,,,,
1478536498.66,-0.218133,0.239800,2.505583,0.186445,-0.481423,-0.255729,-0.210215,-0.237508,-0.948367,-0.016515,-0.052180,-0.102125,-25.648626,-17.622425,-28.090717,,,,,,
1478536498.67,-0.222702,0.242777,2.503135,0.234589,-0.501874,-0.289030,-0.214388,-0.240399,-0.946703,-0.029920,-0.035267,-0.090437,-25.943111,-17.759823,-27.731461,,,,,,
1478536498.68,-0.227998,0.245791,2.500589,0.216298,-0.574924,-0.291740,-0.219235,-0.243323,-0.944844,-0.015964,-0.017511,-0.065792,-25.943111,-17.759823,-27.731461,,,,,,
1478536498.69,-0.233938,0.248416,2.498261,0.183996,-0.629848,-0.254486,-0.224694,-0.245869,-0.942900,0.005379,-0.010158,-0.031404,-26.129539,-18.039587,-27.373545,,,,,,
1478536498.70,-0.240238,0.250381,2.496563,0.126084,-0.640750,-0.176645,-0.230515,-0.247773,-0.940995,0.026322,-0.006865,-0.004257,-26.129539,-18.039587,-27.373545,,,,,,
1478536498.71,-0.246751,0.251083,2.495543,0.004979,-0.645976,-0.083868,-0.236596,-0.248453,-0.939305,0.044854,0.013972,0.058338,-26.380241,-18.292702,-26.962013,,,,,,
1478536498.72,-0.253440,0.249689,2.495194,-0.179317,-0.644361,0.032410,-0.242960,-0.247103,-0.938036,0.052576,0.010683,0.093980,-26.380241,-18.292702,-26.962013,,,,,,
1478536498.73,-0.260365,0.246617,2.495858,-0.287814,-0.641209,0.166927,-0.249644,-0.244125,-0.937060,0.071955,-0.002350,0.121249,-26.701714,-18.367828,-26.591949,,,,,,
1478536498.74,-0.267607,0.242821,2.498125,-0.285135,-0.634042,0.344680,-0.256667,-0.240441,-0.936114,0.096892,-0.001441,0.116046,-26.894249,-18.289845,-26.451302,,,,,,
1478536498.75,-0.275636,0.239051,2.502839,-0.202409,-0.671356,0.574625,-0.264419,-0.236781,-0.934889,0.106109,0.022334,0.093092,-26.894249,-18.289845,-26.451302,,,,,,
1478536498.77,-0.285340,0.236291,2.510524,0.011110,-0.783397,0.813851,-0.273662,-0.234098,-0.932903,0.110820,0.043318,0.072978,-27.363785,-17.959782,-26.194656,,,,,,
1478536498.78,-0.297494,0.235880,2.521318,0.328764,-0.962474,1.011560,-0.285008,-0.233698,-0.929600,0.133656,0.081812,0.048862,-27.363785,-17.959782,-26.194656,,,,,,
1478536498.79,-0.311860,0.237369,2.533921,0.515951,-1.120163,1.073341,-0.298226,-0.235146,-0.925077,0.124673,0.128975,0.058866,-28.059650,-17.501469,-25.765188,,,,,,
1478536498.80,-0.327054,0.238259,2.545831,0.368721,-1.193340,0.993958,-0.312180,-0.236011,-0.920241,0.076721,0.128360,0.097868,-28.059650,-17.501469,-25.765188,,,,,,
1478536498.81,-0.341557,0.236034,2.555631,-0.007151,-1.126847,0.906463,-0.325668,-0.233848,-0.916109,0.011596,0.090126,0.111879,-29.013954,-17.109943,-24.958580,,,,,,
1478536498.82,-0.352203,0.229756,2.563135,-0.423939,-0.723147,0.837214,-0.335901,-0.227740,-0.913950,-0.046957,0.047259,0.095118,-29.013954,-17.109943,-24.958580,,,,,,
1478536498.83,-0.356378,0.219952,2.568256,-0.803189,-0.143396,0.742233,-0.340477,-0.218183,-0.914588,-0.112495,0.005979,0.125037,-29.923559,-16.577881,-24.233133,,,,,,
1478536498.84,-0.354787,0.207414,2.570895,-1.094000,0.290015,0.612979,-0.339945,-0.205930,-0.917622,-0.184179,-0.032122,0.158100,-29.923559,-16.577881,-24.233133,,,,,,
1478536498.85,-0.351349,0.193959,2.572491,-1.146327,0.345593,0.584303,-0.337711,-0.192745,-0.921304,-0.219723,-0.044407,0.156548,-30.333420,-15.735830,-24.284924,,,,,,
1478536498.86,-0.349853,0.181792,2.574925,-0.947226,0.123888,0.620355,-0.337112,-0.180792,-0.923943,-0.164063,-0.034342,0.116005,-30.333420,-15.735830,-24.284924,,,,,,
1478536498.87,-0.350777,0.172224,2.578561,-0.670101,-0.068691,0.631286,-0.338544,-0.171374,-0.925213,-0.040317,-0.065229,0.027996,-30.362652,-14.779888,-24.842598,,,,,,
1478536498.88,-0.352697,0.164407,2.582883,-0.542034,-0.121182,0.641379,-0.340772,-0.163667,-0.925790,0.008954,-0.046477,-0.052863,-30.440434,-14.349980,-24.998966,,,,,,
1478536498.89,-0.354942,0.156010,2.587183,-0.646489,-0.161531,0.660141,-0.343315,-0.155378,-0.926279,0.018944,-0.012987,-0.027655,-30.440434,-14.349980,-24.998966,,,,,,
1478536498.90,-0.357239,0.146251,2.590691,-0.784289,-0.154591,0.618787,-0.345955,-0.145731,-0.926864,0.015969,-0.097296,-0.064148,-30.685097,-13.628742,-25.103235,,,,,,
1478536498.91,-0.357179,0.136100,2.593639,-0.807096,0.129903,0.595259,-0.346399,-0.135680,-0.928223,0.029367,-0.162096,-0.114532,-30.685097,-13.628742,-25.103235,,,,,,
1478536498.92,-0.353723,0.126233,2.596752,-0.760593,0.437984,0.610353,-0.343636,-0.125898,-0.930626,0.034478,-0.138842,-0.151345,-30.931946,-12.827567,-25.222183,,,,,,
1478536498.93,-0.348359,0.117090,2.600839,-0.658221,0.581459,0.680543,-0.339018,-0.116823,-0.933498,0.058775,-0.073347,-0.213825,-30.931946,-12.827567,-25.222183,,,,,,
1478536498.94,-0.342495,0.108954,2.605842,-0.536045,0.624024,0.706117,-0.333847,-0.108739,-0.936334,0.084732,-0.058620,-0.274359,-30.904190,-12.020208,-25.650265,,,,,,
1478536498.95,-0.335793,0.102472,2.610775,-0.390404,0.710954,0.620901,-0.327789,-0.102293,-0.939197,0.100067,-0.066469,-0.291669,-30.904190,-12.020208,-25.650265,,,,,,
1478536498.96,-0.328008,0.097278,2.614998,-0.333244,0.801248,0.513500,-0.320635,-0.097125,-0.942210,0.073458,-0.077192,-0.258977,-30.736954,-11.265118,-26.188301,,,,,,
1478536498.98,-0.319776,0.091776,2.618387,-0.423061,0.808575,0.460569,-0.313031,-0.091647,-0.945311,0.042142,-0.087521,-0.193483,-30.736954,-11.265118,-26.188301,,,,,,
1478536498.99,-0.312073,0.085146,2.621307,-0.539895,0.737386,0.460084,-0.305920,-0.085043,-0.948251,0.030575,-0.094781,-0.126273,-30.432720,-10.715708,-26.767769,,,,,,
1478536499.00,-0.305222,0.077804,2.623954,-0.598464,0.646865,0.447275,-0.299596,-0.077726,-0.950895,0.027318,-0.099658,-0.088168,-30.432720,-10.715708,-26.767769,,,,,,
1478536499.01,-0.300119,0.070622,2.626370,-0.573920,0.442017,0.413067,-0.294897,-0.070563,-0.952920,0.024511,-0.105004,-0.060889,-30.103653,-10.135010,-27.359495,,,,,,
1478536499.02,-0.297961,0.064364,2.628591,-0.481573,0.140036,0.360628,-0.292964,-0.064319,-0.953958,0.024638,-0.107525,-0.057532,-30.103653,-10.135010,-27.359495,,,,,,
1478536499.03,-0.298992,0.060226,2.630268,-0.367508,-0.194826,0.263678,-0.294023,-0.060189,-0.953901,0.021287,-0.113181,-0.077974,-29.908108,-9.536102,-27.785934,,,,,,
1478536499.04,-0.302763,0.056811,2.631672,-0.235706,-0.389022,0.216122,-0.297677,-0.056780,-0.952976,0.036066,-0.112241,-0.094738,-29.916243,-9.323605,-27.849222,,,,,,
1478536499.05,-0.307195,0.054953,2.633421,-0.073810,-0.412740,0.211501,-0.301930,-0.054926,-0.951747,0.039677,-0.110037,-0.182714,-29.916243,-9.323605,-27.849222,,,,,,
1478536499.06,-0.311062,0.055374,2.635912,0.171682,-0.319817,0.219608,-0.305600,-0.055345,-0.950550,0.059812,-0.057707,-0.185803,-30.151760,-9.021372,-27.694344,,,,,,
1478536499.07,-0.312475,0.057397,2.639464,0.305631,-0.037547,0.278100,-0.306909,-0.057365,-0.950009,0.059091,-0.017326,-0.189747,-30.151760,-9.021372,-27.694344,,,,,,
1478536499.08,-0.311046,0.058891,2.643712,0.228969,0.211041,0.367233,-0.305524,-0.058857,-0.950364,0.029233,-0.009655,-0.110290,-30.384148,-8.940559,-27.465618,,,,,,
1478536499.09,-0.307701,0.058802,2.648441,0.102372,0.392639,0.445739,-0.302345,-0.058768,-0.951385,0.063331,-0.013345,-0.012131,-30.384148,-8.940559,-27.465618,,,,,,
1478536499.10,-0.301369,0.057224,2.652419,-0.198390,0.543164,0.419231,-0.296342,-0.057193,-0.953368,0.070985,-0.035687,0.071944,-30.365032,-8.862391,-27.512053,,,,,,
1478536499.11,-0.299462,0.051040,2.654322,-0.599374,0.030866,0.317842,-0.294622,-0.051018,-0.954251,0.060796,-0.041877,0.231015,-30.365032,-8.862391,-27.512053,,,,,,
1478536499.12,-0.302377,0.043326,2.654165,-0.710068,-0.322151,0.160311,-0.297511,-0.043313,-0.953735,0.060588,-0.117378,0.149796,-30.150095,-8.547938,-27.845915,,,,,,
1478536499.13,-0.305581,0.037002,2.652037,-0.599329,-0.308307,-0.081162,-0.300642,-0.036994,-0.953019,-0.014193,-0.138253,0.083116,-30.150095,-8.547938,-27.845915,,,,,,
1478536499.14,-0.309537,0.033060,2.648349,-0.412761,-0.429382,-0.254261,-0.304452,-0.033054,-0.951954,-0.074668,-0.100705,0.012150,-30.307642,-8.031836,-27.828526,,,,,,
1478536499.15,-0.314908,0.031670,2.644738,-0.170547,-0.538925,-0.289388,-0.309574,-0.031664,-0.950348,-0.072659,-0.021726,-0.108017,-30.307642,-8.031836,-27.828526,,,,,,
1478536499.16,-0.320341,0.032142,2.642082,-0.005209,-0.516133,-0.234648,-0.314727,-0.032137,-0.948638,-0.016739,-0.040663,-0.148789,-30.506088,-7.895197,-27.650227,,,,,,
1478536499.18,-0.325841,0.032779,2.640766,0.011576,-0.538193,-0.100350,-0.319934,-0.032773,-0.946873,0.020495,-0.038852,-0.107540,-30.506088,-7.895197,-27.650227,,,,,,
1478536499.19,-0.330253,0.032426,2.640972,-0.040441,-0.627868,0.084378,-0.324112,-0.032420,-0.945463,0.043427,-0.001851,-0.039232,-30.769592,-8.020005,-27.320358,,,,,,
1478536499.20,-0.338019,0.031405,2.642793,-0.025069,-0.772426,0.225630,-0.331456,-0.031400,-0.942948,0.066960,0.024503,0.035432,-30.769592,-8.020005,-27.320358,,,,,,
1478536499.21,-0.347662,0.030899,2.645780,0.082789,-0.956650,0.297751,-0.340538,-0.030894,-0.939723,0.081993,0.022685,0.074366,-31.070278,-7.987815,-26.987459,,,,,,
1478536499.22,-0.359588,0.031795,2.649653,0.255379,-1.182097,0.318766,-0.351711,-0.031790,-0.935569,0.077877,0.034765,0.076804,-31.321415,-7.905548,-26.720062,,,,,,
1478536499.23,-0.373828,0.034208,2.654367,0.406323,-1.387924,0.344043,-0.364968,-0.034201,-0.930392,0.091134,0.037176,0.071627,-31.321415,-7.905548,-26.720062,,,,,,
1478536499.24,-0.389680,0.037064,2.660011,0.459353,-1.515588,0.415645,-0.379632,-0.037056,-0.924395,0.111108,0.063072,0.097903,-31.995327,-7.812484,-25.937513,,,,,,
1478536499.25,-0.406256,0.039305,2.666588,0.424484,-1.556287,0.523756,-0.394867,-0.039295,-0.917897,0.126343,0.065311,0.091405,-31.995327,-7.812484,-25.937513,,,,,,
1478536499.26,-0.422537,0.039990,2.674065,0.313029,-1.504946,0.661096,-0.409747,-0.039979,-0.911322,0.131732,0.083070,0.119422,-32.850639,-7.774925,-24.857117,,,,,,
1478536499.27,-0.437882,0.038428,2.682211,0.145509,-1.399547,0.800394,-0.423709,-0.038418,-0.904983,0.129276,0.088177,0.140747,-32.850639,-7.774925,-24.857117,,,,,,
1478536499.28,-0.451515,0.034324,2.690786,-0.056829,-1.215216,0.940309,-0.436072,-0.034318,-0.899257,0.115516,0.091279,0.142085,-33.724960,-7.508800,-23.743111,,,,,,
1478536499.29,-0.462079,0.027184,2.699528,-0.310956,-0.891428,1.077122,-0.445645,-0.027181,-0.894797,0.091001,0.089345,0.129355,-33.724960,-7.508800,-23.743111,,,,,,
1478536499.30,-0.468723,0.016514,2.707497,-0.657782,-0.523090,1.144391,-0.451686,-0.016513,-0.892024,0.053431,0.082309,0.132686,-34.474258,-6.855562,-22.847694,,,,,,
1478536499.31,-0.471698,0.002462,2.713644,-1.009331,-0.204658,1.114317,-0.454399,-0.002462,-0.890795,0.008430,0.061956,0.133074,-34.474258,-6.855562,-22.847694,,,,,,
1478536499.32,-0.471712,-0.013336,2.718003,-1.174825,0.065888,1.030094,-0.454372,0.013336,-0.890712,-0.036107,0.015198,0.104549,-34.917778,-5.765710,-22.472113,,,,,,
1478536499.33,-0.469516,-0.028752,2.721446,-1.137312,0.235120,0.933342,-0.452268,0.028748,-0.891419,-0.060748,-0.023316,0.035477,-34.917778,-5.765710,-22.472113,,,,,,
1478536499.34,-0.467169,-0.042019,2.725033,-0.901966,0.181506,0.860378,-0.449963,0.042007,-0.892059,-0.071766,-0.041274,-0.046204,-35.035950,-4.462241,-22.584534,,,,,,
1478536499.35,-0.466708,-0.051832,2.730026,-0.517297,-0.034873,0.837696,-0.449344,0.051809,-0.891855,-0.060711,-0.032263,-0.142172,-35.035950,-4.462241,-22.584534,,,,,,
1478536499.36,-0.466749,-0.057358,2.736693,-0.077994,-0.009580,0.792100,-0.449245,0.057327,-0.891567,-0.033512,-0.038238,-0.241337,-35.020592,-3.358232,-22.798485,,,,,,
1478536499.37,-0.465649,-0.059573,2.744585,0.204171,0.072813,0.755536,-0.448206,0.059538,-0.891945,-0.020925,-0.053037,-0.254325,-35.060234,-2.957546,-22.793049,,,,,,
1478536499.39,-0.463763,-0.060267,2.752967,0.322078,0.162706,0.738550,-0.446505,0.060231,-0.892752,-0.031004,-0.022999,-0.211588,-35.060234,-2.957546,-22.793049,,,,,,
1478536499.40,-0.459891,-0.060742,2.761649,0.312632,0.373859,0.769190,-0.443032,0.060705,-0.894448,-0.010017,-0.040685,-0.138343,-35.078056,-2.451736,-22.825626,,,,,,
1478536499.41,-0.453731,-0.062798,2.770208,0.126322,0.591107,0.830288,-0.437458,0.062757,-0.897046,0.007969,-0.032087,-0.022921,-35.078056,-2.451736,-22.825626,,,,,,
1478536499.42,-0.444573,-0.067896,2.777994,-0.204956,0.915084,0.889944,-0.429082,0.067843,-0.900714,-0.040477,-0.026950,0.069217,-34.959850,-2.035486,-23.046825,,,,,,
1478536499.43,-0.431171,-0.076468,2.784399,-0.575084,1.337020,0.890969,-0.416714,0.076394,-0.905822,-0.107258,-0.039910,0.148635,-34.959850,-2.035486,-23.046825,,,,,,
1478536499.44,-0.414480,-0.087905,2.788664,-0.904937,1.620377,0.783308,-0.401159,0.087792,-0.911792,-0.167704,-0.054574,0.180545,-34.578442,-1.337476,-23.665012,,,,,,
1478536499.45,-0.397880,-0.100899,2.790272,-1.117674,1.508419,0.563818,-0.385494,0.100727,-0.917196,-0.178578,-0.058430,0.180944,-34.578442,-1.337476,-23.665012,,,,,,
1478536499.46,-0.385978,-0.113553,2.789393,-1.138542,0.988471,0.322097,-0.374041,0.113309,-0.920464,-0.122846,-0.076581,0.141122,-33.820770,-0.343550,-24.769493,,,,,,
1478536499.47,-0.381373,-0.124065,2.786850,-0.967063,0.292697,0.097159,-0.369334,0.123747,-0.921021,-0.062230,-0.118406,0.049194,-33.820770,-0.343550,-24.769493,,,,,,
1478536499.48,-0.383962,-0.131304,2.783501,-0.706245,-0.354905,-0.057394,-0.371373,0.130927,-0.919206,-0.014888,-0.146887,-0.028624,-33.234371,0.519948,-25.547932,,,,,,
1478536499.49,-0.390231,-0.136072,2.781049,-0.456438,-0.596111,-0.019055,-0.376886,0.135652,-0.916272,0.028452,-0.130022,-0.137515,-33.234371,0.519948,-25.547932,,,,,,
1478536499.50,-0.395536,-0.140519,2.780592,-0.409589,-0.442841,0.169134,-0.381505,0.140057,-0.913695,0.044286,-0.065839,-0.194277,-33.322166,0.920652,-25.421959,,,,,,
1478536499.51,-0.396953,-0.146194,2.781562,-0.482599,-0.029129,0.330347,-0.382486,0.145674,-0.912405,0.021219,-0.014631,-0.148828,-33.322166,0.920652,-25.421959,,,,,,
1478536499.52,-0.393395,-0.153075,2.783491,-0.553254,0.397350,0.446000,-0.378844,0.152477,-0.912813,0.002471,0.006748,-0.083647,-33.566265,1.232603,-25.085392,,,,,,
1478536499.53,-0.388899,-0.161091,2.786005,-0.631040,0.349215,0.525409,-0.374261,0.160395,-0.913347,-0.014121,0.006399,-0.016081,-33.535255,1.491762,-25.112778,,,,,,
1478536499.54,-0.386825,-0.169492,2.788591,-0.648908,0.088251,0.516065,-0.371844,0.168682,-0.912841,0.062777,-0.073055,0.039367,-33.535255,1.491762,-25.112778,,,,,,
1478536499.55,-0.388160,-0.177448,2.790547,-0.622036,-0.241078,0.433707,-0.372543,0.176518,-0.911073,0.015838,-0.086476,0.045045,-33.329929,2.165833,-25.336046,,,,,,
1478536499.56,-0.392793,-0.184466,2.791982,-0.546192,-0.536806,0.361301,-0.376277,0.183422,-0.908170,-0.029287,-0.036541,0.008206,-33.329929,2.165833,-25.336046,,,,,,
1478536499.57,-0.400244,-0.190785,2.792781,-0.527680,-0.779626,0.279816,-0.382573,0.189629,-0.904256,-0.029674,-0.046456,-0.017238,-33.388924,2.817346,-25.193901,,,,,,
1478536499.59,-0.409967,-0.196332,2.792505,-0.562927,-0.944801,0.191337,-0.390922,0.195073,-0.899515,-0.006997,-0.102833,-0.003790,-33.388924,2.817346,-25.193901,,,,,,
1478536499.60,-0.420618,-0.202728,2.791530,-0.601570,-1.006580,0.157481,-0.399963,0.201342,-0.894143,-0.002198,-0.101641,0.012215,-33.747639,3.284006,-24.653652,,,,,,
1478536499.61,-0.431707,-0.209323,2.790455,-0.612580,-1.043896,0.175122,-0.409288,0.207798,-0.888427,0.016664,-0.062550,0.033172,-33.747639,3.284006,-24.653652,,,,,,
1478536499.62,-0.443023,-0.215878,2.789697,-0.587107,-1.062579,0.208920,-0.418723,0.214205,-0.882489,0.041586,-0.043337,0.037946,-34.240376,3.706465,-23.902912,,,,,,
1478536499.63,-0.453370,-0.222183,2.789395,-0.543966,-0.938963,0.245476,-0.427231,0.220360,-0.876878,0.048568,-0.048821,0.016801,-34.240376,3.706465,-23.902912,,,,,,
1478536499.64,-0.461504,-0.228046,2.789978,-0.445927,-0.734930,0.317034,-0.433767,0.226075,-0.872202,0.047979,-0.037766,0.014201,-34.740593,4.143447,-23.095747,,,,,,
1478536499.65,-0.467518,-0.233238,2.792240,-0.315628,-0.599169,0.441722,-0.438469,0.231129,-0.868518,0.042381,-0.024357,0.020648,-34.740593,4.143447,-23.095747,,,,,,
1478536499.66,-0.473594,-0.238171,2.796044,-0.246319,-0.706022,0.550001,-0.443213,0.235926,-0.864813,0.039740,-0.015345,0.033148,-35.090534,4.590497,-22.473806,,,,,,
1478536499.67,-0.481987,-0.243351,2.800770,-0.236179,-0.978721,0.632017,-0.449883,0.240956,-0.859968,0.047036,-0.004475,0.063887,-35.090534,4.590497,-22.473806,,,,,,
1478536499.68,-0.493545,-0.248807,2.805571,-0.254858,-1.289195,0.627177,-0.459162,0.246248,-0.853541,0.061549,-0.004168,0.098612,-35.358929,5.102753,-21.936237,,,,,,
1478536499.69,-0.508119,-0.253838,2.810013,-0.207106,-1.548191,0.578274,-0.470944,0.251121,-0.845666,0.071225,-0.022789,0.116540,-35.358929,5.102753,-21.936237,,,,,,
1478536499.70,-0.523920,-0.258166,2.814687,-0.128127,-1.620730,0.584318,-0.483699,0.255308,-0.837170,0.072643,-0.039579,0.081310,-35.833698,5.680793,-21.003929,,,,,,
1478536499.71,-0.538995,-0.262857,2.820060,-0.143863,-1.543723,0.679681,-0.495644,0.259841,-0.828746,0.043633,0.027681,0.064479,-36.142326,5.938385,-20.395050,,,,,,
1478536499.72,-0.552612,-0.268822,2.826285,-0.205506,-1.412941,0.817625,-0.506060,0.265596,-0.820587,0.054048,0.021926,0.056320,-36.142326,5.938385,-20.395050,,,,,,
1478536499.73,-0.563756,-0.275944,2.833585,-0.216224,-1.185447,0.962031,-0.514149,0.272455,-0.813277,0.063145,0.035345,0.086562,-36.705318,6.502374,-19.181480,,,,,,
1478536499.74,-0.571755,-0.283228,2.842419,-0.123644,-0.929915,1.081699,-0.519550,0.279456,-0.807448,0.068546,0.028344,0.080733,-36.705318,6.502374,-19.181480,,,,,,
1478536499.75,-0.577355,-0.290318,2.853028,-0.013463,-0.803024,1.217284,-0.522969,0.286256,-0.802845,0.035817,0.020903,0.083958,-37.058662,7.299936,-18.189472,,,,,,
1478536499.76,-0.584677,-0.297661,2.865662,0.082358,-1.182158,1.369789,-0.527659,0.293285,-0.797220,0.021159,0.039204,0.114283,-37.058662,7.299936,-18.189472,,,,,,
1478536499.77,-0.597677,-0.303484,2.880154,0.339335,-1.796867,1.416990,-0.537008,0.298846,-0.788869,0.068792,0.027203,0.085911,-37.189888,8.247187,-17.503897,,,,,,
1478536499.78,-0.616874,-0.308289,2.896427,0.492058,-2.473035,1.491931,-0.551215,0.303429,-0.777234,0.089194,0.075585,0.065534,-37.189888,8.247187,-17.503897,,,,,,
1478536499.80,-0.643228,-0.313673,2.913207,0.471687,-3.148781,1.539838,-0.570516,0.308554,-0.761121,0.068242,0.100045,0.018705,-37.514793,9.256974,-16.261589,,,,,,
1478536499.81,-0.673628,-0.321195,2.930318,0.423857,-3.579938,1.600390,-0.591923,0.315700,-0.741593,0.115345,0.085880,-0.045470,-37.514793,9.256974,-16.261589,,,,,,
1478536499.82,-0.708262,-0.329498,2.948368,0.446401,-3.947770,1.826460,-0.615521,0.323568,-0.718636,0.139172,0.037363,-0.032600,-38.122353,10.360265,-14.030018,,,,,,
1478536499.83,-0.745289,-0.340287,2.971179,0.670354,-4.341405,2.322013,-0.639297,0.333757,-0.692752,0.182540,0.022780,-0.040738,-38.122353,10.360265,-14.030018,,,,,,
1478536499.84,-0.782339,-0.351037,3.000395,1.219950,-4.590599,2.640767,-0.661951,0.343872,-0.666013,0.206369,0.029206,-0.127704,-38.717880,11.701099,-11.022713,,,,,,
1478536499.85,-0.820532,-0.360231,3.037013,1.890380,-5.077403,2.919897,-0.684557,0.352490,-0.638069,0.281877,0.019168,-0.214943,-38.871544,12.609982,-9.353168,,,,,,
1478536499.86,-0.861549,-0.367834,3.078782,2.399870,-5.388241,3.041654,-0.708092,0.359595,-0.607699,0.281426,0.094217,-0.306501,-38.871544,12.609982,-9.353168,,,,,,
1478536499.87,-0.904823,-0.376070,3.125107,2.759355,-5.855691,3.296346,-0.731364,0.367268,-0.574649,0.312175,0.067547,-0.343656,-38.829971,14.677147,-5.857080,,,,,,
1478536499.88,-0.951963,-0.388885,-3.106173,2.988043,-6.482510,3.876850,-0.753735,0.379157,-0.536771,0.321927,0.116891,-0.159563,-38.829971,14.677147,-5.857080,,,,,,
1478536499.89,-1.003313,-0.408027,-3.049449,3.148681,-7.134053,4.407731,-0.774030,0.396799,-0.493385,0.401914,0.146826,-0.112771,-38.219910,17.099400,-2.083097,,,,,,
1478536499.90,-1.057039,-0.432284,-2.989743,3.295077,-7.496872,4.715195,-0.790790,0.418946,-0.446245,0.407001,0.216903,-0.067762,-38.219910,17.099400,-2.083097,,,,,,
1478536499.91,-1.110678,-0.460401,-2.928375,3.440664,-7.654192,4.849956,-0.802703,0.444308,-0.397817,0.282256,0.272871,-0.062205,-36.528385,20.456844,2.164488,,,,,,
1478536499.92,-1.163604,-0.490493,-2.865820,3.659142,-7.794693,4.802744,-0.809977,0.471061,-0.349340,0.149974,0.256738,-0.113382,-36.528385,20.456844,2.164488,,,,,,
1478536499.93,-1.215330,-0.521434,-2.801347,3.972196,-7.924292,4.703976,-0.812898,0.498124,-0.301777,0.034944,0.213378,-0.176479,-33.589031,24.310738,6.185104,,,,,,
1478536499.94,-1.263453,-0.552531,-2.733117,4.431218,-7.857266,4.563523,-0.811312,0.524844,-0.257511,-0.066480,0.199781,-0.239422,-33.589031,24.310738,6.185104,,,,,,
1478536499.95,-1.303893,-0.581664,-2.661558,4.803903,-7.356953,4.161860,-0.805965,0.549415,-0.220372,-0.183736,0.174889,-0.285701,-29.685068,28.110292,9.278927,,,,,,
1478536499.96,-1.335582,-0.606774,-2.590114,4.842035,-6.625662,3.555236,-0.798871,0.570221,-0.191450,-0.341311,0.170990,-0.235140,-29.685068,28.110292,9.278927,,,,,,
1478536499.97,-1.360049,-0.628848,-2.524186,4.338163,-5.727947,3.063076,-0.790813,0.588214,-0.169174,-0.478764,0.135938,-0.108185,-25.431484,31.576462,10.661001,,,,,,
1478536499.98,-1.404890,-0.650759,-2.497901,0.340160,-6.111416,2.275960,-0.784699,0.605791,-0.131394,-0.521377,0.072188,0.047975,-25.431484,31.576462,10.661001,,,,,,
1478536499.99,-1.489811,-0.682185,-2.508818,-1.183814,-7.472049,3.125633,-0.773653,0.630490,-0.062792,-0.543287,-0.029782,0.243884,-21.923771,34.074707,10.758870,,,,,,
1478536500.01,-1.551924,-0.714683,-2.516731,-0.662863,-4.757648,2.920535,-0.755167,0.655378,-0.014253,-1.283499,-0.339124,2.009309,-21.923771,34.074707,10.758870,,,,,,
1478536500.02,-1.590106,-0.737113,-2.524646,-0.471209,-2.487832,1.825330,-0.740274,0.672153,0.014296,-0.497656,-0.602878,0.707353,-18.118584,35.062401,14.136318,,,,,,
1478536500.03,-1.595281,-0.749537,-2.528029,-0.178313,0.374133,1.118962,-0.731785,0.681300,0.017921,-0.358379,0.296575,0.895699,-16.467581,35.448505,15.156278,,,,,,
1478536500.04,-1.590043,-0.762252,-2.532461,-0.299011,0.747122,1.236021,-0.723149,0.690552,0.013920,-0.367016,0.287323,0.899700,-16.467581,35.448505,15.156278,,,,,,
1478536500.05,-1.586932,-0.774667,-2.534088,0.024620,0.288440,1.160131,-0.714561,0.699478,0.011531,-0.049096,0.062149,-0.092173,-15.280222,35.802330,15.562730,,,,,,
1478536500.06,-1.584156,-0.788240,-2.529508,0.377928,-0.197412,1.392969,-0.705031,0.709113,0.009419,-0.058595,-0.019981,0.038692,-14.512424,36.160610,15.469006,,,,,,
1478536500.07,-1.590788,-0.804706,-2.520895,0.701093,-1.549884,1.571318,-0.693184,0.720627,0.013860,-0.070442,-0.031494,0.034251,-14.512424,36.160610,15.469006,,,,,,
1478536500.08,-1.602657,-0.821885,-2.506768,1.031892,-2.224835,1.629187,-0.680496,0.732431,0.021689,-0.196930,-0.068551,-0.068731,-14.512424,36.160610,15.469006,,,,,,
1478536500.09,-1.614366,-0.840284,-2.490591,1.105210,-2.215454,1.741694,-0.666618,0.744832,0.029063,-0.117775,0.040370,0.016195,-12.970737,36.802567,15.323882,,,,,,
1478536500.10,-1.623015,-0.860157,-2.474908,1.081717,-1.834543,1.868608,-0.651429,0.757945,0.034048,-0.065597,0.029546,0.088312,-12.970737,36.802567,15.323882,,,,,,
1478536500.11,-1.623668,-0.879548,-2.455201,1.389372,-1.372622,1.719304,-0.636608,0.770451,0.033690,-0.092975,0.092159,0.114046,-10.927828,37.576904,15.034939,,,,,,
1478536500.12,-1.616347,-0.898043,-2.433393,1.287932,-0.768584,1.728493,-0.622495,0.782109,0.028375,-0.174960,0.170283,-0.024331,-10.927828,37.576904,15.034939,,,,,,
1478536500.13,-1.608755,-0.917712,-2.416477,1.089188,-0.429232,1.819238,-0.607201,0.794213,0.023060,-0.317207,0.262107,-0.190220,-9.058559,38.349304,14.309569,,,,,,
1478536500.14,-1.591311,-0.937163,-2.397141,1.153650,0.407095,1.824448,-0.591952,0.805882,0.012145,-0.263425,0.014248,0.017457,-9.058559,38.349304,14.309569,,,,,,
1478536500.15,-1.565228,-0.957381,-2.380416,0.896855,1.442215,1.929592,-0.575654,0.817687,-0.003205,-0.376982,0.205491,-0.071196,-7.456629,38.995770,13.461761,,,,,,
1478536500.16,-1.528327,-0.976231,-2.364537,0.806174,2.510287,1.766758,-0.559643,0.828392,-0.023782,-0.337222,0.114296,-0.061743,-7.456629,38.995770,13.461761,,,,,,
1478536500.17,-1.480802,-0.992169,-2.346118,0.876820,3.185634,1.509860,-0.544662,0.837214,-0.049149,-0.255875,0.065740,0.046204,-6.229986,39.528877,12.495816,,,,,,
1478536500.19,-1.423118,-1.020248,-2.330803,-0.081765,0.899900,1.311391,-0.517461,0.852238,-0.076978,-0.278758,-0.212452,-0.274416,-5.869673,39.744358,11.975943,,,,,,
1478536500.18,-1.439652,-1.006173,-2.333374,0.311713,2.659011,1.376908,-0.530502,0.844790,-0.069974,-0.265717,-0.205005,-0.281421,-5.869673,39.744358,11.975943,,,,,,
1478536500.21,-1.420936,-1.033478,-2.324312,0.206881,-0.710973,1.312089,-0.506098,0.859084,-0.076417,0.265466,-0.434493,0.462327,-5.335402,40.025837,11.267487,,,,,,
1478536500.22,-1.427305,-1.048304,-2.312231,0.391588,-1.829824,1.550725,-0.493913,0.866578,-0.071363,0.475191,-0.418153,0.446546,-5.335402,40.025837,11.267487,,,,,,
1478536500.23,-1.439947,-1.067456,-2.301065,0.195608,-2.167506,2.003705,-0.478231,0.875976,-0.062936,0.599356,-0.258468,0.285119,-4.152189,40.190224,11.180138,,,,,,
1478536500.24,-1.457457,-1.092605,-2.297871,-0.272031,-1.789997,2.508144,-0.457222,0.887828,-0.052044,0.727562,-0.245998,0.138714,-4.152189,40.190224,11.180138,,,,,,
1478536500.25,-1.477145,-1.121221,-2.307444,-0.815219,-0.783216,2.689351,-0.432679,0.900632,-0.040640,0.763093,-0.239377,0.133108,-2.069488,40.366528,11.124348,,,,,,
1478536500.26,-1.495502,-1.150451,-2.326580,-1.026458,0.090927,2.705886,-0.406920,0.912948,-0.030697,0.541487,-0.273651,0.065624,-2.069488,40.366528,11.124348,,,,,,
1478536500.27,-1.512701,-1.179832,-2.350571,-1.116710,0.578560,2.741731,-0.380437,0.924542,-0.022127,0.253088,-0.366467,-0.139540,0.414807,40.253494,11.703620,,,,,,
1478536500.28,-1.531766,-1.206170,-2.383465,-1.313292,1.303476,2.282680,-0.356329,0.934257,-0.013915,0.189077,-0.334266,-0.262788,0.414807,40.253494,11.703620,,,,,,
1478536500.29,-1.555707,-1.227519,-2.431652,-1.789469,2.227588,1.905760,-0.336537,0.941657,-0.005079,0.166599,-0.314429,-0.083316,2.561840,39.884552,12.655039,,,,,,
1478536500.30,-1.590119,-1.247700,-2.497670,-2.114231,2.807701,1.952602,-0.317445,0.948257,0.006134,-0.348632,-0.230331,0.056167,2.561840,39.884552,12.655039,,,,,,
1478536500.31,-1.634723,-1.267463,-2.578305,-2.317816,3.114212,1.975150,-0.298093,0.954346,0.019082,-0.468554,-0.297547,0.268699,3.703822,39.284462,14.159920,,,,,,
1478536500.32,-1.671241,-1.283511,-2.646694,-1.419279,2.444672,1.506389,-0.281921,0.959017,0.028413,-0.181686,0.015013,0.168959,3.703822,39.284462,14.159920,,,,,,
1478536500.33,-1.713337,-1.297030,-2.696326,-1.181035,-0.024470,1.474243,-0.267617,0.962760,0.038407,-0.113486,0.031656,0.050415,4.330782,38.418785,16.208996,,,,,,
1478536500.34,-1.769033,-1.310833,-2.747055,-0.964457,-0.783961,1.503681,-0.252011,0.966399,0.050623,-0.358860,0.720139,-0.824579,4.607738,38.131920,16.799280,,,,,,
1478536500.35,-1.818930,-1.322954,-2.790762,-0.689315,-0.644632,1.310295,-0.237800,0.969444,0.060248,0.027503,0.407540,0.191507,4.607738,38.131920,16.799280,,,,,,
1478536500.36,-1.860100,-1.334614,-2.826300,-0.412585,-0.657632,1.289981,-0.224268,0.972238,0.066755,-0.069967,0.062231,0.128497,5.972595,37.600231,17.551100,,,,,,
1478536500.37,-1.890321,-1.347988,-2.850285,0.004253,-0.641223,1.401196,-0.209785,0.975281,0.069410,-0.063942,0.366165,0.158358,5.972595,37.600231,17.551100,,,,,,
1478536500.38,-1.902562,-1.364022,-2.857455,0.442210,-0.446533,1.503575,-0.194109,0.978698,0.066870,-0.115889,0.001801,0.128244,7.238447,37.242870,17.834347,,,,,,
1478536500.39,-1.906594,-1.379261,-2.857795,0.450822,-0.308726,1.300235,-0.179734,0.981713,0.062730,-0.142623,-0.237374,0.100112,7.238447,37.242870,17.834347,,,,,,
1478536500.40,-1.905128,-1.388742,-2.853806,0.338350,-0.242620,0.716156,-0.171026,0.983474,0.059410,-0.086069,0.247865,0.148369,9.051939,37.084171,17.329653,,,,,,
1478536500.42,-1.911009,-1.391187,-2.856871,-0.069987,-0.304491,-0.007397,-0.168406,0.983913,0.059612,-0.286123,0.209476,0.112706,9.051939,37.084171,17.329653,,,,,,
1478536500.43,-1.913663,-1.383631,-2.860788,-0.411417,0.324926,-0.828731,-0.175244,0.982536,0.062556,0.025937,0.076379,0.016271,9.270546,37.067902,17.248705,,,,,,
1478536500.44,-1.915985,-1.371024,-2.868141,-0.590255,0.501009,-1.158069,-0.186740,0.980112,0.067149,-0.296063,-0.159616,0.023336,8.843565,37.074841,17.456747,,,,,,
1478536500.45,-1.921156,-1.356448,-2.877560,-0.592317,0.303508,-1.202596,-0.199789,0.977115,0.073010,0.201406,0.221631,0.111881,8.843565,37.074841,17.456747,,,,,,
1478536500.46,-1.926980,-1.342475,-2.886084,-0.641454,0.293095,-1.176148,-0.212136,0.974048,0.078926,0.289025,0.574033,0.001625,7.766702,37.053024,18.006723,,,,,,
1478536500.47,-1.926058,-1.329427,-2.890178,-0.458685,0.483004,-1.128883,-0.224106,0.971012,0.083144,0.254425,0.465710,0.115495,7.766702,37.053024,18.006723,,,,,,
1478536500.48,-1.934659,-1.321886,-2.901363,-0.559901,0.060643,-0.247527,-0.230220,0.969181,0.087672,0.121409,0.015117,-0.090938,6.766223,37.017761,18.476849,,,,,,
1478536500.49,-1.972402,-1.322822,-2.932806,-0.629899,-0.903081,0.475394,-0.225913,0.969411,0.095942,0.081076,-0.265661,-0.169078,6.766223,37.017761,18.476849,,,,,,
1478536500.50,-2.012999,-1.326718,-2.961986,-0.395931,-1.193563,0.625944,-0.218417,0.970360,0.103415,-0.118543,-0.060845,-0.236365,7.216560,36.743404,18.850300,,,,,,
1478536500.51,-2.049742,-1.332164,-2.987225,-0.267415,-1.138311,0.764229,-0.209778,0.971662,0.108932,-0.033722,-0.114622,0.087937,7.216560,36.743404,18.850300,,,,,,
1478536500.52,-2.089848,-1.339440,-3.016356,-0.233005,-1.142421,0.981878,-0.199097,0.973356,0.113745,0.053620,-0.020842,0.092508,8.236114,36.505566,18.894453,,,,,,
1478536500.53,-2.134853,-1.347142,-3.050906,-0.250698,-1.003875,0.964566,-0.187437,0.975093,0.118576,-0.082323,-0.180629,-0.006942,8.236114,36.505566,18.894453,,,,,,
1478536500.54,-2.164646,-1.352226,-3.073215,-0.077318,-0.675359,0.555567,-0.179711,0.976208,0.121331,-0.050132,0.019840,0.165656,9.368154,36.239910,18.878471,,,,,,
1478536500.55,-2.181098,-1.356030,-3.084513,0.032049,-0.494280,0.425312,-0.174646,0.977026,0.122142,0.001581,0.105615,0.160543,9.368154,36.239910,18.878471,,,,,,
1478536500.56,-2.203463,-1.361160,-3.101334,-0.003317,-0.602833,0.659660,-0.167827,0.978107,0.123052,-0.021764,0.005979,0.074840,9.957851,36.138874,18.770010,,,,,,
1478536500.57,-2.235816,-1.367479,-3.127363,-0.050619,-0.660028,0.808343,-0.158892,0.979402,0.124600,-0.059340,-0.060396,0.006595,9.957851,36.138874,18.770010,,,,,,
1478536500.58,-2.269808,-1.374148,3.129552,0.082625,-0.869348,0.795403,-0.149562,0.980727,0.125722,-0.083791,-0.006575,0.044703,10.791812,35.959000,18.654156,,,,,,
1478536500.59,-2.282568,-1.380863,3.123677,0.379720,-0.522172,0.461463,-0.142955,0.982017,0.123315,-0.062550,0.016259,0.085578,11.228687,35.911247,18.487541,,,,,,
1478536500.60,-2.277658,-1.384589,3.132021,0.310062,-0.275621,0.066283,-0.140776,0.982713,0.120235,0.026350,-0.097566,0.009053,11.228687,35.911247,18.487541,,,,,,
1478536500.62,-2.266630,-1.383347,-3.137881,0.023031,-0.156562,-0.323751,-0.143030,0.982483,0.119457,0.079767,0.123169,0.007145,11.483341,35.993156,18.169092,,,,,,
1478536500.63,-2.254623,-1.378168,-3.125263,-0.168156,-0.003345,-0.590332,-0.148397,0.981504,0.120945,0.111287,0.061907,-0.013889,11.483341,35.993156,18.169092,,,,,,
1478536500.64,-2.238001,-1.370566,-3.107604,-0.199017,-0.115289,-0.828046,-0.156243,0.980021,0.123075,0.127221,-0.081599,-0.050626,11.112335,36.074097,18.239128,,,,,,
1478536500.65,-2.219216,-1.361145,-3.085672,-0.224100,-0.299435,-1.005589,-0.165879,0.978104,0.125689,0.125809,-0.202438,-0.066927,11.112335,36.074097,18.239128,,,,,,
1478536500.66,-2.204300,-1.350333,-3.066186,-0.330453,-0.421896,-1.077417,-0.176248,0.975796,0.129453,0.103983,-0.240994,-0.050413,10.483803,36.204773,18.351961,,,,,,
1478536500.67,-2.195515,-1.337877,-3.051578,-0.480940,-0.555594,-1.168091,-0.187224,0.972997,0.134999,0.086821,-0.291539,-0.056675,10.483803,36.204773,18.351961,,,,,,
1478536500.68,-2.186773,-1.324675,-3.035316,-0.372295,-0.708778,-1.255921,-0.198864,0.969865,0.140767,0.092419,-0.386384,-0.066151,9.814953,36.282814,18.566483,,,,,,
1478536500.69,-2.163562,-1.313409,-3.002637,0.181808,-0.812301,-1.341837,-0.211127,0.967058,0.142209,0.102759,-0.563051,-0.009351,9.814953,36.282814,18.566483,,,,,,
1478536500.70,-2.130774,-1.305833,-2.960881,0.552167,-0.660406,-1.053291,-0.221877,0.965102,0.139099,0.138899,-0.783416,0.111130,9.126673,36.546524,18.399612,,,,,,
1478536500.71,-2.094293,-1.304094,-2.918558,0.895181,-0.256492,-0.607502,-0.228256,0.964645,0.131752,0.146514,-0.738968,0.199211,9.126673,36.546524,18.399612,,,,,,
1478536500.72,-2.038325,-1.301559,-2.863387,1.209224,0.441442,-1.021932,-0.237451,0.963974,0.119880,0.193521,-0.925659,-0.001044,8.652433,36.997536,17.714636,,,,,,
1478536500.73,-1.940951,-1.293984,-2.773200,2.058223,1.158167,-1.814064,-0.254781,0.961931,0.098866,-0.044230,-1.311800,0.212566,8.652433,36.997536,17.714636,,,,,,
1478536500.74,-1.794411,-1.278425,-2.639726,3.321700,1.988063,-2.678162,-0.281047,0.957563,0.063915,-0.143910,-1.472379,0.015781,7.027799,37.934067,16.404480,,,,,,
1478536500.75,-1.606878,-1.249130,-2.474024,4.648984,3.158881,-3.596152,-0.315942,0.948710,0.011405,-0.164725,-1.234721,-0.051917,5.485839,38.736958,15.061341,,,,,,
1478536500.76,-1.444817,-1.203349,-2.344454,3.936354,3.925973,-4.291485,-0.356387,0.933247,-0.045136,-0.239987,-0.612599,-0.279708,5.485839,38.736958,15.061341,,,,,,
1478536500.77,-1.406958,-1.160607,-2.334278,-0.230017,2.225430,-3.735456,-0.393442,0.917046,-0.065044,-0.227621,0.203652,-0.661213,1.149813,40.123444,12.094517,,,,,,
1478536500.78,-1.476981,-1.136101,-2.422055,-3.710951,0.538753,-2.431440,-0.419282,0.906998,-0.039451,-0.218764,1.156432,0.089423,1.149813,40.123444,12.094517,,,,,,
1478536500.79,-1.563581,-1.125030,-2.494683,-2.242477,-2.941878,-0.725208,-0.431138,0.902280,-0.003111,0.194032,0.686510,-0.295961,-1.339491,39.427284,14.183982,,,,,,
1478536500.80,-1.609528,-1.134430,-2.508771,-0.183985,-2.592894,1.438780,-0.422332,0.906294,0.016366,0.428115,0.744799,-0.032876,-1.339491,39.427284,14.183982,,,,,,
1478536500.81,-1.620537,-1.163719,-2.509601,0.117181,-0.738273,3.155838,-0.395437,0.918282,0.019685,0.654791,0.493126,0.338042,0.189453,39.180252,14.911819,,,,,,
1478536500.83,-1.619323,-1.202964,-2.505586,0.421395,0.074212,3.810026,-0.359170,0.933109,0.017443,0.454584,0.403088,0.200178,0.189453,39.180252,14.911819,,,,,,
1478536500.84,-1.593331,-1.243326,-2.493448,0.507228,1.761516,3.812217,-0.321567,0.946859,0.007248,0.057529,0.551859,0.444748,3.177777,39.151970,14.646338,,,,,,
1478536500.85,-1.567700,-1.280611,-2.489091,0.024975,1.963122,3.465803,-0.286128,0.958191,-0.000886,0.161220,-0.443161,0.323960,3.177777,39.151970,14.646338,,,,,,
1478536500.86,-1.565677,-1.315306,-2.501759,-0.434737,1.084155,3.249563,-0.252717,0.967539,-0.001294,0.176987,-0.581004,0.034222,5.528898,38.870102,14.698180,,,,,,
1478536500.87,-1.579511,-1.349205,-2.516524,-0.211645,-0.269374,3.189780,-0.219774,0.975549,0.001915,0.216631,-0.600915,-0.255730,5.528898,38.870102,14.698180,,,,,,
1478536500.88,-1.577987,-1.379569,-2.505785,0.342932,-1.022317,2.832749,-0.190059,0.981772,0.001367,0.269466,-0.083090,-0.372476,8.056229,38.346645,14.903766,,,,,,
1478536500.89,-1.549491,-1.405843,-2.457657,0.900671,-2.142707,2.350735,-0.164169,0.986426,-0.003498,0.004486,-0.040259,-0.274776,9.352127,38.174950,14.584279,,,,,,
1478536500.90,-1.480863,-1.427162,-2.353618,1.628525,-3.612346,2.050003,-0.142562,0.989702,-0.012856,-0.232209,-0.366808,-0.340370,9.352127,38.174950,14.584279,,,,,,
1478536500.91,-1.394165,-1.441097,-2.231411,1.169528,-2.963151,1.292842,-0.127324,0.991601,-0.022726,-0.266674,-0.207131,-0.205438,11.900198,38.096764,12.826241,,,,,,
1478536500.92,-1.354400,-1.451028,-2.164285,0.482774,-2.615672,1.099226,-0.116696,0.992836,-0.025654,-0.367481,0.813926,0.298466,11.900198,38.096764,12.826241,,,,,,
1478536500.93,-1.299984,-1.459379,-2.078135,0.817092,-3.008166,0.954919,-0.107134,0.993800,-0.029744,-0.434675,0.542684,0.000966,13.500051,37.988926,11.492631,,,,,,
1478536500.94,-1.225458,-1.465037,-1.974055,0.851276,-2.622965,0.762489,-0.099330,0.994413,-0.035734,-0.314641,0.494235,-0.161867,13.500051,37.988926,11.492631,,,,,,
1478536500.95,-1.157734,-1.468689,-1.885919,0.638774,-1.627702,0.640825,-0.093357,0.994792,-0.040916,-0.041363,0.105047,0.103309,14.759499,37.929661,10.049301,,,,,,
1478536500.96,-1.079416,-1.473922,-1.794573,0.518272,-1.112736,0.932099,-0.085279,0.995311,-0.045638,0.081784,0.391377,0.166625,14.759499,37.929661,10.049301,,,,,,
1478536500.97,-0.986207,-1.482420,-1.691424,0.323998,-0.824348,1.202832,-0.073604,0.996097,-0.048707,0.096782,0.605602,0.167192,15.690191,37.766415,9.219881,,,,,,
1478536500.98,-0.869813,-1.490971,-1.567131,0.317709,-0.684800,1.221235,-0.060938,0.996816,-0.051430,0.120493,0.580607,0.104820,15.690191,37.766415,9.219881,,,,,,
1478536500.99,-0.747673,-1.496157,-1.438258,0.351712,-0.574447,0.919382,-0.050703,0.997216,-0.054680,0.032362,0.416130,0.038582,16.772602,37.417744,8.722533,,,,,,
1478536501.00,-0.649995,-1.497906,-1.335930,0.309967,-0.336680,0.559094,-0.044073,0.997345,-0.057976,-0.098780,0.396134,0.097115,16.772602,37.417744,8.722533,,,,,,
1478536501.01,-0.595314,-1.498489,-1.279789,0.140420,-0.063289,0.282211,-0.040512,0.997387,-0.059816,-0.210876,0.526081,0.149767,17.362606,37.236233,8.336277,,,,,,
1478536501.03,-0.580730,-1.498235,-1.265434,0.063368,0.037604,-0.003915,-0.039775,0.997369,-0.060612,-0.261342,0.600394,0.146764,17.362606,37.236233,8.336277,,,,,,
1478536501.04,-0.592871,-1.496469,-1.278132,0.102246,0.040817,-0.209452,-0.041492,0.997239,-0.061586,-0.167233,0.398864,0.096559,17.418461,37.225330,8.268164,,,,,,
1478536501.05,-0.620034,-1.493215,-1.304990,0.163476,-0.048861,-0.382438,-0.045035,0.996992,-0.063077,0.020605,0.185686,0.053525,17.320129,37.280647,8.225377,,,,,,
1478536501.06,-0.656720,-1.488492,-1.342711,0.180558,0.137982,-0.528840,-0.050192,0.996615,-0.065111,0.103338,0.083601,0.055696,17.320129,37.280647,8.225377,,,,,,
1478536501.07,-0.701535,-1.484012,-1.389630,0.062603,0.186998,-0.559579,-0.055940,0.996237,-0.066207,0.123658,-0.022695,0.078796,16.925791,37.484070,8.121114,,,,,,
1478536501.08,-0.746867,-1.479945,-1.437144,0.027096,0.201662,-0.564019,-0.061634,0.995876,-0.066577,0.112751,-0.018673,0.034594,16.925791,37.484070,8.121114,,,,,,
1478536501.09,-0.789122,-1.474597,-1.483363,0.094376,0.430510,-0.669932,-0.068171,0.995376,-0.067665,0.105265,-0.108505,0.006584,16.434935,37.693321,8.160688,,,,,,
1478536501.10,-0.831313,-1.468117,-1.532829,0.073862,0.724684,-0.812557,-0.075728,0.994733,-0.069075,0.080474,-0.272214,0.054396,16.434935,37.693321,8.160688,,,,,,
1478536501.11,-0.878398,-1.460804,-1.589815,-0.014573,0.992140,-0.915239,-0.084492,0.993957,-0.070076,0.121312,-0.351913,0.084755,15.706812,37.969009,8.315087,,,,,,
1478536501.12,-0.925504,-1.455030,-1.649050,-0.204128,1.160426,-0.769962,-0.092282,0.993307,-0.069470,0.115811,-0.264181,0.030789,15.706812,37.969009,8.315087,,,,,,
1478536501.13,-0.958702,-1.453537,-1.694908,-0.341773,1.085974,-0.254356,-0.095751,0.993133,-0.067221,0.005617,0.126435,-0.011255,14.877398,38.192234,8.803782,,,,,,
1478536501.14,-0.969466,-1.456607,-1.712015,-0.316227,0.416921,0.203736,-0.093955,0.993487,-0.064461,-0.219324,0.520108,-0.074806,14.877398,38.192234,8.803782,,,,,,
1478536501.15,-0.984475,-1.459959,-1.729857,-0.337821,0.280149,0.129693,-0.092137,0.993864,-0.061201,-0.331890,0.466555,-0.008730,14.798131,38.114246,9.263374,,,,,,
1478536501.16,-1.002508,-1.462460,-1.751530,-0.313060,0.326630,0.061811,-0.091130,0.994137,-0.058192,-0.176662,0.118854,0.032023,14.798131,38.114246,9.263374,,,,,,
1478536501.17,-1.025779,-1.464181,-1.777696,-0.313637,0.238354,-0.028691,-0.090996,0.994322,-0.055168,-0.108879,0.126894,0.034645,14.798427,38.026451,9.616957,,,,,,
1478536501.18,-1.052353,-1.464898,-1.806967,-0.273442,0.252862,-0.106849,-0.091810,0.994398,-0.052378,-0.069383,0.080629,0.062067,14.798427,38.026451,9.616957,,,,,,
1478536501.19,-1.075006,-1.464503,-1.832031,-0.176902,0.184720,-0.169307,-0.093319,0.994356,-0.050471,-0.026966,0.066862,0.067256,14.678374,37.996262,9.915638,,,,,,
1478536501.20,-1.090558,-1.463369,-1.847722,-0.059676,-0.066893,-0.164594,-0.095092,0.994235,-0.049535,0.028259,0.050351,0.056264,14.595901,38.007210,9.995098,,,,,,
1478536501.21,-1.090219,-1.462529,-1.845515,0.108328,-0.184752,-0.000740,-0.095817,0.994145,-0.049953,0.069129,0.032573,0.044201,14.595901,38.007210,9.995098,,,,,,
1478536501.22,-1.047062,-1.464091,-1.802744,0.354047,0.216477,0.400764,-0.092227,0.994312,-0.053264,0.032733,-0.013142,0.065349,14.621784,38.024464,9.891108,,,,,,
1478536501.24,-0.984675,-1.465132,-1.746979,0.443521,0.794858,0.362857,-0.087864,0.994423,-0.058338,-0.085949,-0.163139,0.143604,14.621784,38.024464,9.891108,,,,,,
1478536501.25,-0.924110,-1.465438,-1.696185,0.358614,0.956871,0.301253,-0.083929,0.994455,-0.063366,-0.149729,-0.091104,0.176143,14.792307,37.993420,9.755930,,,,,,
1478536501.26,-0.887807,-1.466228,-1.666953,0.123438,0.550528,0.218865,-0.080964,0.994538,-0.065874,-0.066420,-0.067719,0.120134,14.792307,37.993420,9.755930,,,,,,
1478536501.27,-0.878319,-1.467583,-1.658472,-0.045733,-0.032201,0.129370,-0.079299,0.994678,-0.065779,0.050566,-0.039142,0.033293,14.851220,37.956821,9.808738,,,,,,
1478536501.28,-0.877411,-1.468468,-1.654682,-0.001496,-0.320944,0.085825,-0.078562,0.994769,-0.065289,0.137721,0.050031,-0.009846,14.851220,37.956821,9.808738,,,,,,
1478536501.29,-0.868759,-1.468746,-1.641806,0.096608,-0.411984,0.099816,-0.077783,0.994797,-0.065788,0.034159,0.077133,0.017799,14.981576,37.923069,9.740819,,,,,,
1478536501.30,-0.861103,-1.468427,-1.630161,0.099780,-0.353242,0.028962,-0.077518,0.994765,-0.066588,-0.042263,0.029115,0.058272,14.981576,37.923069,9.740819,,,,,,
1478536501.31,-0.858481,-1.468085,-1.624372,0.056233,-0.289059,0.012532,-0.077600,0.994730,-0.067013,-0.066931,0.005972,0.044140,15.098232,37.925552,9.549152,,,,,,
1478536501.32,-0.854402,-1.467929,-1.617307,0.067563,-0.280594,0.043214,-0.077444,0.994714,-0.067431,-0.070963,0.010489,0.034396,15.098232,37.925552,9.549152,,,,,,
1478536501.33,-0.847443,-1.467706,-1.607451,0.092682,-0.264377,0.044530,-0.077138,0.994691,-0.068115,-0.075861,0.011748,0.052413,15.180525,37.928070,9.407633,,,,,,
1478536501.34,-0.838142,-1.467235,-1.595628,0.125190,-0.227091,0.045596,-0.076850,0.994642,-0.069142,-0.068582,0.003221,0.061452,15.180525,37.928070,9.407633,,,,,,
1478536501.35,-0.826034,-1.466808,-1.581072,0.132805,-0.227285,0.073917,-0.076319,0.994598,-0.070356,-0.051549,0.009033,0.044614,15.265498,37.935280,9.239564,,,,,,
1478536501.36,-0.816574,-1.466558,-1.568752,0.096687,-0.285546,0.064568,-0.075832,0.994572,-0.071245,-0.057561,0.021801,0.051408,15.265498,37.935280,9.239564,,,,,,
1478536501.37,-0.810184,-1.466366,-1.558257,0.085205,-0.415316,0.046969,-0.075513,0.994552,-0.071860,-0.058444,0.035248,0.055350,15.373735,37.934105,9.063243,,,,,,
1478536501.38,-0.808946,-1.466024,-1.552206,0.059055,-0.462148,0.009362,-0.075670,0.994516,-0.072188,-0.042967,0.034399,0.070204,15.429241,37.935650,8.961891,,,,,,
1478536501.39,-0.811981,-1.465668,-1.550222,0.031374,-0.478151,-0.018976,-0.076146,0.994479,-0.072202,-0.029933,0.028501,0.086179,15.429241,37.935650,8.961891,,,,,,
