timestamp(unix),attitude_roll(radians),attitude_pitch(radians),attitude_yaw(radians),rotation_rate_x(radians/s),rotation_rate_y(radians/s),rotation_rate_z(radians/s),gravity_x(G),gravity_y(G),gravity_z(G),user_acc_x(G),user_acc_y(G),user_acc_z(G),magnetic_field_x(microteslas),magnetic_field_y(microteslas),magnetic_field_z(microteslas),latitude(degree),longitude(degree),altitude(meter),speed(m/s),course(degree),timestamp(unix)
1478477698.04,-0.077329,0.597025,0.954098,-0.232634,-0.173777,-0.014731,-0.063888,-0.562185,-0.824540,-0.015580,-0.012233,0.001497,-22.978743,-35.251118,-21.414776,,,,,,
1478477698.05,-0.078891,0.594994,0.954041,-0.173676,-0.125371,0.006154,-0.065266,-0.560503,-0.825576,-0.005657,-0.016355,-0.024231,-23.047430,-35.143509,-21.517578,,,,,,
1478477698.06,-0.079696,0.593670,0.953945,-0.112306,-0.068051,-0.001287,-0.065990,-0.559407,-0.826262,-0.001057,-0.010066,-0.034028,-23.047430,-35.143509,-21.517578,,,,,,
1478477698.07,-0.080057,0.593056,0.953657,-0.043009,-0.051366,-0.023871,-0.066315,-0.558898,-0.826581,-0.008163,-0.015870,-0.024829,-23.105110,-35.068073,-21.578712,,,,,,
1478477698.08,-0.081031,0.592904,0.953780,-0.008388,-0.101082,0.030206,-0.067127,-0.558772,-0.826600,-0.009914,-0.010808,-0.017058,-23.105110,-35.068073,-21.578712,,,,,,
1478477698.09,-0.083307,0.592186,0.954552,-0.022830,-0.178041,0.053375,-0.069042,-0.558176,-0.826845,-0.006093,0.003901,-0.019209,-23.133280,-35.053089,-21.572876,,,,,,
1478477698.10,-0.085649,0.591879,0.955047,-0.026460,-0.197727,0.038937,-0.070992,-0.557921,-0.826852,0.002007,0.018645,-0.020377,-23.133280,-35.053089,-21.572876,,,,,,
1478477698.12,-0.087880,0.591327,0.955401,-0.060620,-0.192909,0.029777,-0.072864,-0.557463,-0.826998,0.010608,0.015181,-0.016935,-23.257196,-35.006676,-21.514923,,,,,,
1478477698.13,-0.089842,0.590217,0.955525,-0.120192,-0.172140,0.017529,-0.074542,-0.556541,-0.827469,0.003314,0.003395,-0.013473,-23.312845,-34.987473,-21.485912,,,,,,
1478477698.14,-0.091794,0.588700,0.955753,-0.155676,-0.158788,0.021698,-0.076234,-0.555280,-0.828162,-0.004363,-0.004962,-0.001901,-23.312845,-34.987473,-21.485912,,,,,,
1478477698.15,-0.093530,0.586814,0.955953,-0.186037,-0.151682,0.037083,-0.077770,-0.553711,-0.829070,0.007793,-0.011063,0.015944,-23.411160,-34.919498,-21.489595,,,,,,
1478477698.16,-0.095093,0.584378,0.956405,-0.241927,-0.113899,0.062621,-0.079193,-0.551681,-0.830287,0.016358,-0.007554,0.016826,-23.411160,-34.919498,-21.489595,,,,,,
1478477698.18,-0.096455,0.579294,0.957718,-0.207752,0.019788,0.071895,-0.080594,-0.547433,-0.832960,0.017804,-0.001120,0.025434,-23.507324,-34.805813,-21.568901,,,,,,
1478477698.17,-0.096128,0.581667,0.957052,-0.248813,-0.048532,0.078588,-0.080196,-0.549417,-0.831690,0.017406,0.000864,0.024165,-23.507324,-34.805813,-21.568901,,,,,,
1478477698.19,-0.095873,0.578122,0.958035,-0.166289,0.043651,0.058596,-0.080170,-0.546452,-0.833644,0.013489,-0.009426,0.026531,-23.507324,-34.805813,-21.568901,,,,,,
1478477698.20,-0.095928,0.576666,0.958562,-0.124341,0.014246,0.056018,-0.080292,-0.545232,-0.834431,0.001953,-0.022731,0.015309,-23.572624,-34.627686,-21.783287,,,,,,
1478477698.21,-0.096271,0.575707,0.958984,-0.078568,-0.021196,0.038881,-0.080628,-0.544428,-0.834923,-0.001922,-0.016073,0.002465,-23.587584,-34.583321,-21.837500,,,,,,
1478477698.22,-0.096876,0.575268,0.959254,-0.050289,-0.075416,0.036523,-0.081157,-0.544060,-0.835112,0.007518,-0.005974,0.000167,-23.587584,-34.583321,-21.837500,,,,,,
1478477698.23,-0.097436,0.574701,0.959138,-0.060129,-0.107460,0.017294,-0.081654,-0.543584,-0.835374,0.016988,-0.000178,0.000672,-23.624676,-34.537346,-21.870140,,,,,,
1478477698.24,-0.097701,0.573681,0.958474,-0.099156,-0.126005,-0.009944,-0.081930,-0.542728,-0.835903,0.025030,0.001285,-0.003529,-23.624676,-34.537346,-21.870140,,,,,,
1478477698.25,-0.098196,0.572418,0.957661,-0.116965,-0.117157,-0.044693,-0.082410,-0.541667,-0.836544,0.013028,0.003962,0.000790,-23.634830,-34.513153,-21.897346,,,,,,
1478477698.26,-0.098820,0.571319,0.956656,-0.096877,-0.108099,-0.077671,-0.082991,-0.540742,-0.837085,0.001265,0.001069,-0.001249,-23.634830,-34.513153,-21.897346,,,,,,
1478477698.27,-0.099027,0.570302,0.955642,-0.065936,-0.038614,-0.083301,-0.083218,-0.539886,-0.837614,-0.006061,0.006561,-0.007936,-23.636463,-34.488800,-21.933928,,,,,,
1478477698.28,-0.098292,0.569497,0.954732,-0.031412,0.055504,-0.074578,-0.082645,-0.539209,-0.838107,-0.007199,0.008508,-0.014020,-23.636463,-34.488800,-21.933928,,,,,,
1478477698.29,-0.096758,0.569183,0.953825,0.008406,0.121322,-0.078793,-0.081376,-0.538944,-0.838401,-0.005370,0.009113,-0.009682,-23.598282,-34.479317,-21.989868,,,,,,
1478477698.30,-0.095121,0.569404,0.953062,0.050087,0.122720,-0.068402,-0.079992,-0.539130,-0.838415,-0.007059,0.009147,-0.004175,-23.598282,-34.479317,-21.989868,,,,,,
1478477698.31,-0.094020,0.570039,0.952450,0.067106,0.058390,-0.053579,-0.079037,-0.539665,-0.838162,-0.002262,0.006584,0.003308,-23.500315,-34.507050,-22.051201,,,,,,
1478477698.33,-0.093249,0.570530,0.951754,0.065102,0.001414,-0.044062,-0.078366,-0.540078,-0.837958,0.009259,0.003091,-0.013650,-23.500315,-34.507050,-22.051201,,,,,,
1478477698.34,-0.092849,0.570735,0.950999,0.021232,-0.037162,-0.046500,-0.078020,-0.540251,-0.837879,0.011355,-0.002428,-0.020321,-23.433084,-34.557678,-22.043459,,,,,,
1478477698.35,-0.092612,0.570597,0.950215,-0.024164,-0.044909,-0.039668,-0.077829,-0.540134,-0.837972,0.012689,-0.004635,-0.008677,-23.433084,-34.557678,-22.043459,,,,,,
1478477698.36,-0.092556,0.570487,0.949751,-0.030740,-0.014140,-0.026792,-0.077788,-0.540042,-0.838036,0.004179,-0.004468,0.003975,-23.392580,-34.586830,-22.040760,,,,,,
1478477698.37,-0.092191,0.570425,0.949534,-0.034891,0.028959,-0.007957,-0.077485,-0.539990,-0.838097,0.002778,-0.003589,0.012811,-23.392580,-34.586830,-22.040760,,,,,,
1478477698.38,-0.091476,0.570284,0.949462,-0.038955,0.062175,0.009819,-0.076892,-0.539872,-0.838228,0.005222,-0.004272,0.011919,-23.372198,-34.594872,-22.049759,,,,,,
1478477698.39,-0.090762,0.570075,0.949690,-0.045387,0.078050,0.029081,-0.076304,-0.539695,-0.838395,0.003184,-0.003747,0.015657,-23.355652,-34.592766,-22.070580,,,,,,
1478477698.40,-0.090038,0.569938,0.949982,-0.051730,0.081723,0.028926,-0.075704,-0.539580,-0.838524,0.005788,-0.006380,0.022713,-23.355652,-34.592766,-22.070580,,,,,,
1478477698.41,-0.089195,0.569720,0.950164,-0.058072,0.084223,0.021433,-0.075007,-0.539397,-0.838705,0.003184,-0.008516,0.016073,-23.333830,-34.575119,-22.121262,,,,,,
1478477698.42,-0.088610,0.569400,0.950340,-0.051521,0.058308,0.019512,-0.074532,-0.539127,-0.838920,0.000100,-0.007885,0.009162,-23.333830,-34.575119,-22.121262,,,,,,
1478477698.43,-0.088157,0.569112,0.950429,-0.042515,0.039851,0.015047,-0.074166,-0.538884,-0.839109,0.001992,-0.008189,0.001950,-23.309965,-34.555729,-22.176649,,,,,,
1478477698.44,-0.087834,0.568587,0.950520,-0.057558,0.027384,0.016266,-0.073919,-0.538442,-0.839414,0.002294,-0.003046,-0.000872,-23.309965,-34.555729,-22.176649,,,,,,
1478477698.45,-0.087726,0.567849,0.950668,-0.077603,0.009898,0.022404,-0.073863,-0.537820,-0.839818,0.001979,-0.001227,0.005177,-23.298262,-34.532860,-22.224518,,,,,,
1478477698.46,-0.087626,0.567207,0.950721,-0.072387,-0.008580,0.017883,-0.073810,-0.537279,-0.840169,0.008807,-0.001646,0.010899,-23.298262,-34.532860,-22.224518,,,,,,
1478477698.47,-0.087480,0.566850,0.950624,-0.047137,-0.008324,0.005977,-0.073703,-0.536978,-0.840371,0.011341,-0.002482,0.014489,-23.301243,-34.495850,-22.278803,,,,,,
1478477698.48,-0.087665,0.566789,0.950572,-0.015269,-0.040261,0.003296,-0.073862,-0.536926,-0.840390,0.006021,-0.006913,0.006039,-23.301243,-34.495850,-22.278803,,,,,,
1478477698.49,-0.088214,0.566970,0.950523,0.021587,-0.065954,-0.003098,-0.074314,-0.537078,-0.840252,0.004338,-0.001374,-0.000614,-23.300842,-34.488373,-22.290794,,,,,,
1478477698.50,-0.088730,0.567328,0.950484,0.053054,-0.053409,-0.001630,-0.074731,-0.537380,-0.840023,0.003076,-0.001453,-0.013630,-23.300842,-34.488373,-22.290794,,,,,,
1478477698.51,-0.089192,0.567938,0.950590,0.080606,-0.027274,-0.001673,-0.075090,-0.537895,-0.839661,-0.003294,-0.001366,-0.016418,-23.321413,-34.503006,-22.246590,,,,,,
1478477698.53,-0.089321,0.568823,0.950894,0.099118,0.023378,0.017364,-0.075156,-0.538640,-0.839177,-0.006265,-0.001368,-0.012370,-23.321413,-34.503006,-22.246590,,,,,,
1478477698.54,-0.089221,0.569930,0.951487,0.117760,0.059230,0.031746,-0.075019,-0.539573,-0.838590,-0.006570,-0.000954,-0.006823,-23.336933,-34.531853,-22.185482,,,,,,
1478477698.55,-0.088733,0.571420,0.952086,0.123616,0.108839,0.018730,-0.074538,-0.540827,-0.837825,-0.004914,-0.005758,0.003032,-23.341412,-34.547977,-22.155640,,,,,,
1478477698.56,-0.087523,0.572744,0.952326,0.129728,0.129985,0.008650,-0.073462,-0.541941,-0.837200,-0.005991,-0.004644,0.002407,-23.341412,-34.547977,-22.155640,,,,,,
1478477698.57,-0.086635,0.574491,0.952738,0.172665,0.130307,0.000681,-0.072636,-0.543407,-0.836321,-0.012798,0.005779,0.002398,-23.309498,-34.600803,-22.106747,,,,,,
1478477698.58,-0.085218,0.576482,0.952766,0.233025,0.155679,-0.031989,-0.071359,-0.545078,-0.835343,-0.009925,0.007648,-0.017608,-23.309498,-34.600803,-22.106747,,,,,,
1478477698.59,-0.083593,0.579163,0.952726,0.322414,0.186012,-0.045925,-0.069879,-0.547323,-0.833999,-0.019461,0.012152,-0.027787,-23.254930,-34.682617,-22.035900,,,,,,
1478477698.60,-0.081521,0.583093,0.952811,0.463265,0.253680,-0.051162,-0.067975,-0.550609,-0.831991,-0.024829,0.017360,-0.030619,-23.254930,-34.682617,-22.035900,,,,,,
1478477698.61,-0.078752,0.588935,0.952823,0.642265,0.291994,-0.067619,-0.065417,-0.555476,-0.828955,-0.023023,0.014491,-0.037591,-23.155350,-34.839306,-21.893131,,,,,,
1478477698.62,-0.075639,0.596823,0.952630,0.805152,0.296800,-0.081291,-0.062503,-0.562017,-0.824760,-0.022611,0.022619,-0.051933,-23.155350,-34.839306,-21.893131,,,,,,
1478477698.63,-0.072252,0.606090,0.952479,0.903451,0.323292,-0.072961,-0.059331,-0.569659,-0.819737,-0.028239,0.027239,-0.082683,-22.986799,-35.164680,-21.547831,,,,,,
1478477698.64,-0.068778,0.616150,0.952988,0.977634,0.370189,-0.008906,-0.056086,-0.577898,-0.814180,-0.035802,0.041002,-0.088042,-22.986799,-35.164680,-21.547831,,,,,,
1478477698.65,-0.065843,0.626720,0.954694,1.030781,0.372206,0.082586,-0.053291,-0.586491,-0.808200,-0.040383,0.061299,-0.053891,-22.797466,-35.600700,-21.026707,,,,,,
1478477698.66,-0.063493,0.637288,0.957101,0.999407,0.355557,0.127792,-0.050996,-0.595018,-0.802093,-0.036956,0.048723,-0.002610,-22.797466,-35.600700,-21.026707,,,,,,
1478477698.67,-0.061632,0.647314,0.959344,0.964709,0.276496,0.093059,-0.049133,-0.603046,-0.796192,-0.035461,0.027469,0.034565,-22.706863,-35.998722,-20.438858,,,,,,
1478477698.68,-0.061789,0.657769,0.961660,1.005632,0.085984,0.129980,-0.048866,-0.611352,-0.789848,-0.013985,0.009775,0.066048,-22.706863,-35.998722,-20.438858,,,,,,
1478477698.69,-0.062127,0.667184,0.964331,0.858571,0.146812,0.144000,-0.048773,-0.618776,-0.784052,0.036414,0.000185,0.078882,-22.702177,-36.361202,-19.792187,,,,,,
1478477698.70,-0.060881,0.674387,0.966533,0.638705,0.290453,0.111419,-0.047524,-0.624419,-0.779643,0.076943,-0.025072,0.050852,-22.731907,-36.513748,-19.474682,,,,,,
1478477698.71,-0.057047,0.679485,0.968159,0.448373,0.521990,0.088819,-0.044353,-0.628392,-0.776631,0.083812,-0.008021,0.032796,-22.731907,-36.513748,-19.474682,,,,,,
1478477698.72,-0.050733,0.683654,0.969647,0.402210,0.738143,0.086957,-0.039315,-0.631630,-0.774272,0.023339,0.019768,0.056422,-22.670111,-36.703388,-19.188114,,,,,,
1478477698.74,-0.042669,0.688516,0.970754,0.492066,0.854022,0.048278,-0.032939,-0.635392,-0.771487,-0.034307,0.052873,0.086169,-22.670111,-36.703388,-19.188114,,,,,,
1478477698.75,-0.034140,0.694476,0.971639,0.587935,0.869399,0.053081,-0.026228,-0.639983,-0.767941,-0.067431,0.062743,0.077100,-22.419861,-36.843372,-19.213854,,,,,,
1478477698.76,-0.025314,0.700807,0.972344,0.604172,0.884659,0.015038,-0.019346,-0.644835,-0.764077,-0.093004,0.044997,0.014413,-22.419861,-36.843372,-19.213854,,,,,,
1478477698.77,-0.017269,0.707100,0.972556,0.587850,0.732525,0.006332,-0.013128,-0.649632,-0.760136,-0.096201,0.055226,0.004719,-22.096947,-37.062046,-19.167324,,,,,,
1478477698.78,-0.010435,0.711370,0.973332,0.313020,0.680867,0.069465,-0.007904,-0.652872,-0.757427,-0.087067,0.054499,0.025615,-22.096947,-37.062046,-19.167324,,,,,,
1478477698.79,-0.008722,0.711680,0.975284,-0.054538,0.130050,0.159309,-0.006605,-0.653107,-0.757237,-0.019411,0.009933,0.035084,-21.820782,-37.252098,-19.115208,,,,,,
1478477698.80,-0.010805,0.709644,0.977736,-0.219786,-0.033087,0.175621,-0.008196,-0.651564,-0.758549,0.108538,-0.061357,0.163090,-21.820782,-37.252098,-19.115208,,,,,,
1478477698.81,-0.011061,0.706957,0.979843,-0.252953,0.138856,0.146484,-0.008410,-0.649523,-0.760295,0.156298,-0.060270,-0.071507,-21.897655,-37.146320,-19.232780,,,,,,
1478477698.82,-0.011039,0.704838,0.981506,-0.175456,0.085194,0.112942,-0.008409,-0.647911,-0.761670,0.099855,-0.026604,-0.079517,-21.897655,-37.146320,-19.232780,,,,,,
1478477698.83,-0.008763,0.702391,0.980906,-0.121989,0.030332,0.060663,-0.006689,-0.646045,-0.763270,0.074346,0.011951,-0.050802,-21.962980,-36.989952,-19.458347,,,,,,
1478477698.84,-0.008575,0.700753,0.980742,-0.176197,0.004870,-0.037806,-0.006554,-0.644793,-0.764329,0.026055,0.011279,-0.070861,-21.962980,-36.989952,-19.458347,,,,,,
1478477698.85,-0.007657,0.697684,0.979052,-0.337699,-0.029842,-0.142573,-0.005868,-0.642444,-0.766310,-0.022590,0.009357,-0.075014,-21.904369,-36.921871,-19.652752,,,,,,
1478477698.86,-0.007172,0.692383,0.976464,-0.565435,-0.137097,-0.198015,-0.005520,-0.638373,-0.769707,-0.052601,0.005362,-0.047553,-21.860895,-36.888939,-19.762688,,,,,,
1478477698.87,-0.008041,0.684434,0.973770,-0.815057,-0.198738,-0.253310,-0.006230,-0.632234,-0.774752,-0.034984,0.004305,0.013689,-21.860895,-36.888939,-19.762688,,,,,,
1478477698.88,-0.007887,0.674197,0.969990,-1.025867,-0.217153,-0.273213,-0.006161,-0.624270,-0.781184,0.029354,-0.022596,0.038508,-21.789837,-36.710312,-20.169594,,,,,,
1478477698.89,-0.008954,0.662460,0.966642,-1.138423,-0.335733,-0.223778,-0.007060,-0.615058,-0.788450,0.044032,-0.017251,0.050550,-21.789837,-36.710312,-20.169594,,,,,,
1478477698.90,-0.012468,0.650833,0.964639,-1.080106,-0.483508,-0.110061,-0.009919,-0.605849,-0.795518,0.070435,-0.018373,0.087571,-21.702986,-36.375683,-20.857769,,,,,,
1478477698.91,-0.017650,0.641043,0.963747,-0.878443,-0.564510,-0.039554,-0.014146,-0.598032,-0.801348,0.077241,-0.029379,0.069201,-21.702986,-36.375683,-20.857769,,,,,,
1478477698.92,-0.023734,0.633952,0.963210,-0.603818,-0.619845,-0.027296,-0.019120,-0.592333,-0.805466,0.069551,-0.054884,0.021027,-21.850927,-35.966381,-21.405910,,,,,,
1478477698.94,-0.029872,0.629629,0.962777,-0.355173,-0.596167,-0.017974,-0.024140,-0.588845,-0.807885,-0.008453,-0.050635,-0.031226,-21.850927,-35.966381,-21.405910,,,,,,
1478477698.95,-0.035337,0.627199,0.962432,-0.199229,-0.519778,-0.019466,-0.028605,-0.586880,-0.809169,-0.054967,-0.023411,-0.062428,-22.107412,-35.732204,-21.534357,,,,,,
1478477698.96,-0.040767,0.625309,0.962782,-0.149583,-0.419507,0.002866,-0.033044,-0.585348,-0.810109,-0.066306,-0.013972,-0.058391,-22.107412,-35.732204,-21.534357,,,,,,
1478477698.97,-0.044240,0.623759,0.962791,-0.145597,-0.300788,0.005825,-0.035897,-0.584091,-0.810894,-0.059638,-0.002228,-0.038456,-22.347101,-35.635918,-21.446331,,,,,,
1478477698.98,-0.046687,0.622215,0.962780,-0.148907,-0.214229,0.004316,-0.037924,-0.582836,-0.811704,-0.046289,0.006008,-0.007723,-22.347101,-35.635918,-21.446331,,,,,,
1478477698.99,-0.048451,0.620553,0.962712,-0.164569,-0.158654,0.001926,-0.039402,-0.581485,-0.812602,-0.024242,-0.000821,0.008189,-22.478775,-35.566662,-21.423676,,,,,,
1478477699.00,-0.050453,0.618824,0.962948,-0.183728,-0.135262,0.000031,-0.041080,-0.580078,-0.813524,-0.013654,0.000076,0.011965,-22.518270,-35.530506,-21.442183,,,,,,
1478477699.01,-0.051452,0.616571,0.962732,-0.225772,-0.095911,-0.003693,-0.041960,-0.578241,-0.814786,-0.009554,0.001657,0.016096,-22.518270,-35.530506,-21.442183,,,,,,
1478477699.02,-0.052091,0.613758,0.962470,-0.282823,-0.073932,-0.011020,-0.042564,-0.575944,-0.816381,-0.015373,-0.005645,0.013326,-22.590113,-35.440243,-21.515862,,,,,,
1478477699.03,-0.052735,0.610488,0.962044,-0.316780,-0.091386,-0.018575,-0.043189,-0.573267,-0.818229,-0.017235,-0.007620,0.014030,-22.590113,-35.440243,-21.515862,,,,,,
1478477699.04,-0.054125,0.607954,0.961920,-0.272495,-0.099727,-0.025150,-0.044405,-0.571189,-0.819616,-0.015745,-0.010049,0.018789,-22.617723,-35.313896,-21.693865,,,,,,
1478477699.05,-0.054955,0.605635,0.961260,-0.206640,-0.121404,-0.047136,-0.045158,-0.569284,-0.820900,-0.008813,-0.021857,0.008964,-22.617723,-35.313896,-21.693865,,,,,,
1478477699.06,-0.055946,0.603851,0.960421,-0.160971,-0.144530,-0.058351,-0.046028,-0.567817,-0.821867,0.007484,-0.001580,-0.021410,-22.662279,-35.216389,-21.805588,,,,,,
1478477699.07,-0.056782,0.602343,0.959516,-0.144794,-0.118399,-0.065917,-0.046763,-0.566575,-0.822682,0.008204,0.002290,-0.022258,-22.662279,-35.216389,-21.805588,,,,,,
1478477699.08,-0.056983,0.600657,0.958307,-0.124832,-0.093417,-0.080769,-0.046984,-0.565184,-0.823626,0.005098,-0.002855,-0.023100,-22.679819,-35.171219,-21.860184,,,,,,
1478477699.09,-0.057400,0.599717,0.957149,-0.084274,-0.109205,-0.086049,-0.047357,-0.564409,-0.824136,0.000909,0.000291,-0.027976,-22.679819,-35.171219,-21.860184,,,,,,
1478477699.10,-0.058411,0.599230,0.956103,-0.042032,-0.169633,-0.075834,-0.048207,-0.564006,-0.824362,-0.001888,0.003276,-0.034662,-22.659384,-35.152180,-21.911945,,,,,,
1478477699.11,-0.060127,0.598887,0.955223,-0.036496,-0.221631,-0.065065,-0.049633,-0.563724,-0.824471,0.001843,0.004077,-0.038887,-22.659384,-35.152180,-21.911945,,,,,,
1478477699.12,-0.062430,0.597885,0.954519,-0.041261,-0.253860,-0.059682,-0.051567,-0.562895,-0.824918,-0.004723,0.003401,-0.030185,-22.688751,-35.166901,-21.857868,,,,,,
1478477699.13,-0.064820,0.597264,0.953685,-0.048708,-0.269911,-0.068103,-0.053560,-0.562382,-0.825141,-0.000624,0.002553,-0.005975,-22.688751,-35.166901,-21.857868,,,,,,
1478477699.15,-0.067198,0.596913,0.952798,-0.034669,-0.284732,-0.060292,-0.055536,-0.562092,-0.825208,0.004541,0.000324,0.002134,-22.769014,-35.156342,-21.791286,,,,,,
1478477699.16,-0.070216,0.597046,0.952359,0.007399,-0.321890,-0.023491,-0.058021,-0.562202,-0.824962,0.003639,0.000984,0.011669,-22.769014,-35.156342,-21.791286,,,,,,
1478477699.17,-0.073400,0.597195,0.952320,-0.029478,-0.290219,0.007329,-0.060641,-0.562325,-0.824690,0.007433,0.004204,0.020216,-22.864511,-35.174622,-21.661407,,,,,,
1478477699.18,-0.074494,0.596163,0.952306,-0.128949,-0.044770,0.012787,-0.061587,-0.561472,-0.825201,0.001086,0.001123,0.012075,-22.932308,-35.178772,-21.582861,,,,,,
1478477699.19,-0.074814,0.594660,0.952617,-0.130994,0.038287,-0.013169,-0.061913,-0.560227,-0.826022,-0.022910,-0.000121,-0.000821,-22.932308,-35.178772,-21.582861,,,,,,
1478477699.20,-0.077632,0.593850,0.952697,-0.080848,-0.210521,-0.097763,-0.064276,-0.559556,-0.826297,-0.062173,-0.002426,0.015414,-22.974472,-35.114597,-21.642441,,,,,,
1478477699.21,-0.082295,0.594860,0.952639,0.087547,-0.257507,-0.127638,-0.068082,-0.560393,-0.825424,-0.072970,0.005110,0.028000,-22.974472,-35.114597,-21.642441,,,,,,
1478477699.22,-0.085545,0.595632,0.950976,0.050240,-0.464165,-0.138179,-0.070728,-0.561032,-0.824767,-0.100400,-0.017962,0.044661,-23.135540,-35.118866,-21.463196,,,,,,
1478477699.23,-0.090565,0.595900,0.949150,-0.011784,-0.590637,-0.143072,-0.074853,-0.561254,-0.824252,-0.156958,0.002355,0.064044,-23.135540,-35.118866,-21.463196,,,,,,
1478477699.24,-0.096148,0.594067,0.948140,-0.247950,-0.580651,-0.030137,-0.079552,-0.559735,-0.824844,-0.179115,0.055051,0.154724,-23.249338,-35.204475,-21.198336,,,,,,
1478477699.25,-0.102090,0.589959,0.947978,-0.414592,-0.579909,0.055750,-0.084686,-0.556327,-0.826637,-0.167160,0.116157,0.260322,-23.249338,-35.204475,-21.198336,,,,,,
1478477699.26,-0.107351,0.584900,0.949519,-0.494180,-0.282166,0.179579,-0.089334,-0.552116,-0.828968,-0.105826,0.129951,0.390430,-23.493172,-35.086617,-21.124786,,,,,,
1478477699.27,-0.107395,0.579366,0.949669,-0.504514,0.003430,0.034793,-0.089697,-0.547493,-0.831989,-0.133997,0.147744,0.372593,-23.493172,-35.086617,-21.124786,,,,,,
1478477699.28,-0.108392,0.574972,0.948368,-0.409156,-0.221298,-0.083909,-0.090785,-0.543811,-0.834283,-0.149617,0.308353,0.309060,-23.673813,-34.806629,-21.384705,,,,,,
1478477699.29,-0.112969,0.570830,0.946209,-0.410273,-0.664810,-0.137761,-0.094856,-0.540330,-0.836089,-0.157707,0.299425,0.352157,-23.673813,-34.806629,-21.384705,,,,,,
1478477699.30,-0.120480,0.567705,0.944828,-0.256276,-0.780850,-0.052633,-0.101336,-0.537699,-0.837025,-0.095487,0.155786,0.458211,-23.766108,-34.663979,-21.513657,,,,,,
1478477699.31,-0.128876,0.567718,0.943594,0.084677,-0.920314,-0.134888,-0.108359,-0.537709,-0.836138,-0.104547,0.266286,0.415286,-23.766108,-34.663979,-21.513657,,,,,,
1478477699.32,-0.139766,0.571394,0.940822,0.381946,-1.269561,-0.301310,-0.117182,-0.540805,-0.832946,-0.104056,0.290515,0.349135,-24.073307,-34.635635,-21.215683,,,,,,
1478477699.33,-0.154567,0.576571,0.938180,0.457336,-1.638068,-0.249849,-0.129064,-0.545152,-0.828342,-0.177348,0.283128,0.308292,-24.236126,-34.773357,-20.800968,,,,,,
1478477699.35,-0.174717,0.579715,0.938162,0.226333,-2.037570,0.030738,-0.145429,-0.547786,-0.823882,-0.160983,0.285762,0.303832,-24.236126,-34.773357,-20.800968,,,,,,
1478477699.36,-0.203968,0.580336,0.941761,0.099642,-2.794089,0.340935,-0.169394,-0.548305,-0.818943,-0.027841,0.404491,0.448200,-24.849684,-35.018570,-19.632870,,,,,,
1478477699.37,-0.244128,0.580860,0.949256,0.227765,-3.651730,0.652837,-0.202068,-0.548743,-0.811203,0.095592,0.399985,0.651352,-24.849684,-35.018570,-19.632870,,,,,,
1478477699.38,-0.296065,0.582301,0.961969,0.456604,-4.462359,1.034081,-0.243677,-0.549947,-0.798862,0.198770,0.414846,0.719333,-26.347557,-34.849480,-17.904652,,,,,,
1478477699.39,-0.357112,0.583058,0.980245,0.547461,-4.953918,1.461911,-0.291815,-0.550579,-0.782117,0.282248,0.499889,0.695310,-26.347557,-34.849480,-17.904652,,,,,,
1478477699.40,-0.424682,0.581316,1.004131,0.583547,-5.248375,1.940814,-0.344351,-0.549125,-0.761502,0.350378,0.633796,0.635769,-28.757526,-34.345779,-14.920740,,,,,,
1478477699.41,-0.498084,0.576348,1.033378,0.617006,-5.532869,2.409699,-0.400568,-0.544966,-0.736585,0.404962,0.698881,0.680524,-28.757526,-34.345779,-14.920740,,,,,,
1478477699.42,-0.576504,0.566482,1.066511,0.519191,-5.829218,2.870756,-0.459950,-0.536667,-0.707415,0.468967,0.764129,0.682558,-31.678024,-33.198013,-11.119854,,,,,,
1478477699.43,-0.658543,0.550682,1.101967,0.408217,-6.069831,3.312286,-0.521497,-0.523269,-0.673966,0.513608,0.831862,0.701524,-31.678024,-33.198013,-11.119854,,,,,,
1478477699.44,-0.742588,0.528545,1.138653,0.287733,-6.235147,3.763446,-0.583924,-0.504278,-0.636189,0.540238,0.865529,0.750432,-34.800282,-31.204342,-6.669767,,,,,,
1478477699.45,-0.826254,0.499047,1.175494,0.131572,-6.218161,4.274789,-0.645708,-0.478589,-0.594990,0.559908,0.897000,0.734761,-34.800282,-31.204342,-6.669767,,,,,,
1478477699.46,-0.906848,0.461212,1.211208,-0.082772,-6.046114,4.834185,-0.705275,-0.445034,-0.551844,0.553115,0.968350,0.692621,-37.790478,-28.249252,-1.765232,,,,,,
1478477699.47,-0.983352,0.415343,1.245201,-0.213845,-5.862476,5.398268,-0.761591,-0.403504,-0.507113,0.567835,1.024781,0.651797,-37.790478,-28.249252,-1.765232,,,,,,
1478477699.48,-1.057230,0.360654,1.276819,-0.380463,-5.927143,6.051880,-0.814964,-0.352886,-0.459680,0.566825,1.071713,0.575693,-40.449516,-24.153313,3.116148,,,,,,
1478477699.49,-1.130714,0.296985,1.306149,-0.436833,-6.160002,6.784737,-0.865111,-0.292639,-0.407364,0.523925,1.073995,0.445572,-41.598907,-21.627056,5.572966,,,,,,
1478477699.50,-1.204663,0.226180,1.334232,-0.185489,-6.365726,7.306949,-0.909937,-0.224256,-0.348890,0.480082,1.024656,0.288419,-41.598907,-21.627056,5.572966,,,,,,
1478477699.51,-1.275104,0.153379,1.361447,0.277423,-6.143283,7.362614,-0.945371,-0.152778,-0.287982,0.385159,1.024955,0.106631,-43.218708,-15.513404,10.987911,,,,,,
1478477699.52,-1.340619,0.082901,1.387531,0.750630,-5.859082,6.996712,-0.970282,-0.082806,-0.227367,0.164130,0.976528,-0.193928,-43.218708,-15.513404,10.987911,,,,,,
1478477699.53,-1.398401,0.017437,1.410466,0.899200,-5.188888,6.381675,-0.985027,-0.017436,-0.171517,-0.220814,0.962672,-0.426460,-43.311447,-8.778034,16.622906,,,,,,
1478477699.54,-1.443062,-0.044201,1.426532,0.499182,-3.894034,5.943180,-0.990884,0.044187,-0.127263,-0.695471,0.848437,-0.605800,-43.311447,-8.778034,16.622906,,,,,,
1478477699.56,-1.469461,-0.104470,1.432108,-0.353973,-2.053116,5.683932,-0.989446,0.104280,-0.100611,-1.188243,0.646483,-0.467245,-42.161449,-2.823025,21.064161,,,,,,
1478477699.57,-1.474492,-0.160907,1.425604,-1.409258,0.169978,5.129550,-0.982509,0.160214,-0.094913,-1.282903,0.333118,-0.183285,-41.676563,-0.314996,22.186064,,,,,,
1478477699.58,-1.461091,-0.211639,1.406510,-2.547393,2.037527,4.443838,-0.971811,0.210062,-0.107042,-1.293601,0.283269,-0.171156,-41.676563,-0.314996,22.186064,,,,,,
1478477699.59,-1.437646,-0.257266,1.377028,-3.420350,3.087252,3.846894,-0.958529,0.254437,-0.128388,-1.440488,0.179828,-0.096221,-41.676563,-0.314996,22.186064,,,,,,
1478477699.60,-1.412663,-0.300185,1.342743,-3.734499,3.278677,3.507985,-0.943363,0.295697,-0.150433,-1.445660,0.076785,-0.075504,-42.281662,4.264616,20.575003,,,,,,
1478477699.61,-1.391198,-0.340212,1.309694,-3.495384,2.909620,3.157089,-0.927521,0.333687,-0.168396,-1.315795,0.032768,-0.171890,-42.791473,5.093304,19.292610,,,,,,
1478477699.62,-1.376390,-0.375955,1.281665,-2.934271,2.130835,2.789550,-0.912636,0.367161,-0.179692,-1.175225,0.009197,-0.436184,-42.791473,5.093304,19.292610,,,,,,
1478477699.63,-1.368667,-0.407574,1.260354,-2.264123,1.319799,2.511208,-0.899394,0.396383,-0.184311,-1.140950,-0.049261,-0.728561,-43.448204,6.594876,17.263189,,,,,,
1478477699.64,-1.364400,-0.434772,1.245210,-1.672355,0.927993,2.176826,-0.887716,0.421204,-0.185868,-1.137064,-0.149079,-0.941146,-43.448204,6.594876,17.263189,,,,,,
1478477699.65,-1.360272,-0.456626,1.234568,-1.218286,0.802199,1.729264,-0.877729,0.440923,-0.187562,-1.144168,-0.251927,-1.071074,-43.519070,8.060973,16.442863,,,,,,
1478477699.66,-1.356146,-0.473156,1.226891,-0.900807,0.696501,1.294108,-0.869707,0.455698,-0.189604,-1.176253,-0.345408,-0.986879,-43.519070,8.060973,16.442863,,,,,,
1478477699.67,-1.351947,-0.485498,1.220687,-0.722836,0.665810,0.956241,-0.863347,0.466649,-0.192018,-1.152980,-0.416844,-0.875273,-43.489319,9.153848,15.941852,,,,,,
1478477699.68,-1.346820,-0.494857,1.215338,-0.607650,0.747643,0.721044,-0.858055,0.474906,-0.195464,-1.158272,-0.425101,-0.871827,-43.489319,9.153848,15.941852,,,,,,
1478477699.69,-1.341524,-0.501544,1.210662,-0.495095,0.697369,0.458603,-0.853896,0.480780,-0.199278,-1.077607,-0.454260,-0.734010,-43.540863,9.748065,15.441023,,,,,,
1478477699.70,-1.336797,-0.505361,1.206703,-0.373202,0.596201,0.225365,-0.851153,0.484123,-0.202886,-0.981534,-0.454460,-0.598475,-43.540863,9.748065,15.441023,,,,,,
1478477699.71,-1.333703,-0.507428,1.204096,-0.211950,0.350700,0.123909,-0.849547,0.485931,-0.205283,-0.914964,-0.494887,-0.536447,-43.671970,9.970902,14.919676,,,,,,
1478477699.72,-1.331856,-0.508359,1.203852,0.019729,0.144871,0.060820,-0.848727,0.486744,-0.206744,-0.799589,-0.491947,-0.442731,-43.671970,9.970902,14.919676,,,,,,
1478477699.73,-1.330093,-0.507453,1.205749,0.221077,0.070571,-0.076061,-0.848789,0.485953,-0.208345,-0.738095,-0.482702,-0.418852,-43.742256,10.026518,14.674479,,,,,,
1478477699.74,-1.327697,-0.505397,1.209605,0.407038,0.034928,-0.115700,-0.849255,0.484155,-0.210619,-0.657230,-0.471246,-0.374510,-43.742256,10.026518,14.674479,,,,,,
1478477699.76,-1.325671,-0.501826,1.215094,0.558358,-0.095284,-0.257266,-0.850498,0.481027,-0.212757,-0.586132,-0.441125,-0.298733,-43.779037,10.034933,14.558591,,,,,,
1478477699.77,-1.324753,-0.497415,1.221315,0.616483,-0.238320,-0.265050,-0.852352,0.477156,-0.214052,-0.511311,-0.458418,-0.241835,-43.779037,10.034933,14.558591,,,,,,
1478477699.78,-1.325812,-0.493291,1.227916,0.636135,-0.455888,-0.261094,-0.854480,0.473527,-0.213625,-0.432446,-0.389986,-0.161497,-43.792561,9.977888,14.557130,,,,,,
1478477699.79,-1.328671,-0.488099,1.233768,0.568575,-0.546649,-0.397900,-0.857463,0.468947,-0.211768,-0.352757,-0.378325,-0.062325,-43.792561,9.977888,14.557130,,,,,,
1478477699.80,-1.332700,-0.482418,1.237568,0.389155,-0.548518,-0.450743,-0.860884,0.463923,-0.208937,-0.249651,-0.406794,-0.000048,-43.711761,9.888058,14.858158,,,,,,
1478477699.81,-1.337492,-0.477495,1.238858,0.156279,-0.495691,-0.429242,-0.864087,0.459556,-0.205334,-0.206210,-0.279761,0.104580,-43.711761,9.888058,14.858158,,,,,,
1478477699.82,-1.342328,-0.473299,1.237558,-0.075965,-0.373565,-0.412580,-0.866940,0.455825,-0.201588,-0.145328,-0.267364,0.180623,-43.633240,9.587987,15.279643,,,,,,
1478477699.83,-1.346947,-0.469140,1.234095,-0.232433,-0.259058,-0.464603,-0.869703,0.452120,-0.198001,-0.032244,-0.223879,0.236041,-43.609329,9.395745,15.466195,,,,,,
1478477699.84,-1.351196,-0.464924,1.229228,-0.337970,-0.185304,-0.486995,-0.872389,0.448355,-0.194717,-0.029558,-0.220114,0.232758,-43.609329,9.395745,15.466195,,,,,,
1478477699.85,-1.355504,-0.460406,1.224138,-0.317657,-0.200982,-0.519552,-0.875190,0.444312,-0.191388,-0.021493,-0.191947,0.187879,-43.619457,8.883586,15.737900,,,,,,
1478477699.86,-1.360240,-0.455489,1.220221,-0.197847,-0.324842,-0.557431,-0.878212,0.439902,-0.187696,-0.043586,-0.166663,0.125165,-43.619457,8.883586,15.737900,,,,,,
1478477699.87,-1.365705,-0.448667,1.217526,-0.055693,-0.421568,-0.716864,-0.882143,0.433765,-0.183500,-0.051024,-0.165851,0.044141,-43.633461,8.313148,16.008410,,,,,,
1478477699.88,-1.371084,-0.441335,1.216221,0.057244,-0.473160,-0.677569,-0.886210,0.427147,-0.179378,-0.057881,-0.192055,-0.052418,-43.633461,8.313148,16.008410,,,,,,
1478477699.89,-1.376358,-0.434907,1.216105,0.125825,-0.501951,-0.587789,-0.889820,0.421326,-0.175229,-0.061047,-0.063554,-0.070987,-43.602364,7.666205,16.410954,,,,,,
1478477699.90,-1.381030,-0.428900,1.216836,0.184881,-0.459997,-0.534907,-0.893098,0.415870,-0.171544,0.009477,-0.105583,-0.061641,-43.602364,7.666205,16.410954,,,,,,
1478477699.91,-1.385137,-0.423637,1.217983,0.190996,-0.426057,-0.449540,-0.895934,0.411079,-0.168277,0.058257,-0.057532,-0.037717,-43.522545,7.188512,16.833595,,,,,,
1478477699.92,-1.388954,-0.419690,1.219180,0.163216,-0.408823,-0.314095,-0.898158,0.407477,-0.165148,0.060786,0.010980,0.002275,-43.522545,7.188512,16.833595,,,,,,
1478477699.93,-1.392602,-0.417841,1.220670,0.160912,-0.403297,-0.092234,-0.899495,0.405788,-0.162003,0.092625,0.020603,0.037110,-43.432198,6.876814,17.193319,,,,,,
1478477699.94,-1.396207,-0.417681,1.222721,0.187854,-0.430286,0.047200,-0.900137,0.405642,-0.158771,0.112875,0.017439,0.055850,-43.369492,6.837298,17.366501,,,,,,
1478477699.95,-1.399825,-0.417817,1.225459,0.251234,-0.455813,0.039960,-0.900651,0.405766,-0.155504,0.118272,-0.022053,0.051408,-43.369492,6.837298,17.366501,,,,,,
1478477699.97,-1.402628,-0.418087,1.229521,0.377222,-0.409878,0.108459,-0.900975,0.406013,-0.152960,0.096715,0.049553,0.023429,-43.203552,6.944900,17.733530,,,,,,
1478477699.98,-1.404933,-0.419245,1.235394,0.524371,-0.463129,0.221863,-0.900861,0.407071,-0.150805,0.059873,0.127734,0.014483,-43.203552,6.944900,17.733530,,,,,,
1478477699.99,-1.407236,-0.421472,1.243640,0.718774,-0.573017,0.339358,-0.900309,0.409104,-0.148582,0.031611,0.090926,-0.024758,-43.019077,7.227101,18.066120,,,,,,
1478477700.00,-1.410269,-0.422768,1.254322,0.957717,-0.747653,0.248866,-0.900232,0.410286,-0.145766,-0.023062,0.099388,-0.077745,-43.019077,7.227101,18.066120,,,,,,
1478477700.01,-1.414444,-0.422180,1.267419,1.190651,-0.969719,0.059744,-0.901071,0.409750,-0.142044,-0.076300,0.095911,-0.109604,-42.732868,7.797706,18.502815,,,,,,
1478477700.02,-1.419074,-0.418854,1.283031,1.452597,-1.048099,-0.136289,-0.903061,0.406714,-0.138076,-0.186997,0.104867,-0.162095,-42.732868,7.797706,18.502815,,,,,,
1478477700.03,-1.423137,-0.413981,1.300885,1.648546,-1.082925,-0.265330,-0.905564,0.402257,-0.134695,-0.290206,0.128764,-0.199350,-42.344467,8.305613,19.162970,,,,,,
1478477700.04,-1.426463,-0.407462,1.319626,1.708261,-1.002115,-0.419139,-0.908583,0.396281,-0.132057,-0.340807,0.079381,-0.221779,-42.344467,8.305613,19.162970,,,,,,
1478477700.05,-1.429105,-0.399183,1.337324,1.620982,-0.873718,-0.601628,-0.912145,0.388666,-0.130115,-0.318964,0.081106,-0.184323,-41.968075,8.717623,19.797482,,,,,,
1478477700.06,-1.430460,-0.390076,1.353731,1.525740,-0.684660,-0.651574,-0.915788,0.380259,-0.129369,-0.255782,0.146643,-0.106700,-41.968075,8.717623,19.797482,,,,,,
1478477700.07,-1.431480,-0.381063,1.369006,1.433127,-0.644162,-0.680576,-0.919276,0.371908,-0.128905,-0.259603,0.038142,-0.051652,-41.735119,8.855913,20.223972,,,,,,
1478477700.08,-1.432721,-0.371279,1.383797,1.431637,-0.628726,-0.751993,-0.922995,0.362807,-0.128259,-0.206323,0.010056,-0.053611,-41.659454,8.876007,20.370636,,,,,,
1478477700.09,-1.434156,-0.361032,1.398962,1.477445,-0.671381,-0.793537,-0.926813,0.353240,-0.127434,-0.106939,0.146928,-0.054176,-41.659454,8.876007,20.370636,,,,,,
1478477700.10,-1.436776,-0.350150,1.414195,1.482123,-0.778408,-0.856665,-0.930898,0.343039,-0.125512,-0.158396,0.121698,-0.055747,-41.523357,8.834431,20.664463,,,,,,
1478477700.11,-1.440125,-0.339255,1.428985,1.431703,-0.789868,-0.853520,-0.934963,0.332785,-0.122873,-0.203449,0.023157,-0.079077,-41.523357,8.834431,20.664463,,,,,,
1478477700.12,-1.443702,-0.327894,1.442778,1.349214,-0.758748,-0.936182,-0.939087,0.322050,-0.120000,-0.190491,0.013307,-0.049144,-41.340511,8.739752,21.067408,,,,,,
1478477700.13,-1.446617,-0.315779,1.455908,1.313927,-0.637185,-1.004972,-0.943235,0.310557,-0.117736,-0.171038,0.022390,-0.012406,-41.340511,8.739752,21.067408,,,,,,
1478477700.14,-1.447835,-0.304007,1.469221,1.345160,-0.449594,-0.937780,-0.946941,0.299346,-0.117027,-0.136876,0.081163,-0.038597,-41.191299,8.513490,21.448860,,,,,,
1478477700.15,-1.446568,-0.293806,1.483322,1.410222,-0.215780,-0.755594,-0.949772,0.289597,-0.118600,-0.051052,0.109969,-0.073936,-41.191299,8.513490,21.448860,,,,,,
1478477700.17,-1.442826,-0.285467,1.498868,1.545114,-0.019959,-0.564399,-0.951684,0.281605,-0.122457,0.032006,0.124767,-0.097117,-41.172161,8.365397,21.543671,,,,,,
1478477700.18,-1.437546,-0.277859,1.516340,1.717746,0.034992,-0.505191,-0.953120,0.274298,-0.127761,0.037959,0.132792,-0.114534,-41.172161,8.365397,21.543671,,,,,,
1478477700.19,-1.434173,-0.269747,1.534879,1.798472,-0.237477,-0.546031,-0.954857,0.266487,-0.131274,-0.028679,0.118065,-0.128080,-41.265614,8.597614,21.271736,,,,,,
1478477700.20,-1.434854,-0.261587,1.553627,1.808393,-0.634538,-0.528147,-0.957069,0.258614,-0.130913,-0.090966,0.115685,-0.106498,-41.279747,8.763468,21.176413,,,,,,
1478477700.21,-1.439651,-0.253934,1.572190,1.786387,-0.988777,-0.478333,-0.959620,0.251213,-0.126576,-0.093221,0.092918,-0.048168,-41.279747,8.763468,21.176413,,,,,,
1478477700.22,-1.447515,-0.247152,1.591271,1.843217,-1.257408,-0.405523,-0.962254,0.244643,-0.119232,-0.060695,0.069337,0.003388,-41.054150,9.122945,21.461250,,,,,,
1478477700.23,-1.457553,-0.240552,1.611453,1.957512,-1.464501,-0.402830,-0.964986,0.238239,-0.109748,-0.064677,0.077084,0.002692,-41.054150,9.122945,21.461250,,,,,,
1478477700.24,-1.468653,-0.234133,1.633236,2.104918,-1.559003,-0.383163,-0.967646,0.231999,-0.099184,-0.087362,0.045543,-0.035933,-40.534351,9.631380,22.213947,,,,,,
1478477700.25,-1.479570,-0.228255,1.656817,2.267770,-1.541141,-0.332055,-0.970012,0.226278,-0.088737,-0.130970,0.105738,-0.081078,-40.534351,9.631380,22.213947,,,,,,
1478477700.26,-1.489708,-0.222850,1.682074,2.410092,-1.492220,-0.312430,-0.972067,0.221010,-0.078996,-0.144342,0.144621,-0.104476,-39.874321,10.343194,23.071911,,,,,,
1478477700.27,-1.500032,-0.216913,1.707812,2.410340,-1.533409,-0.413527,-0.974122,0.215216,-0.069048,-0.141066,0.157526,-0.105070,-39.874321,10.343194,23.071911,,,,,,
1478477700.28,-1.512790,-0.210223,1.731561,2.171002,-1.760342,-0.510041,-0.976340,0.208678,-0.056697,-0.169504,0.150499,-0.071553,-39.209705,11.238543,23.781311,,,,,,
1478477700.29,-1.528562,-0.204206,1.751611,1.788454,-1.915189,-0.458986,-0.978349,0.202790,-0.041345,-0.150252,0.113601,0.119638,-39.209705,11.238543,23.781311,,,,,,
1478477700.30,-1.545074,-0.199617,1.767204,1.362104,-1.829516,-0.364792,-0.979818,0.198294,-0.025209,-0.070810,0.054925,0.238282,-38.414082,11.895230,24.741028,,,,,,
1478477700.31,-1.559685,-0.195948,1.778815,1.006977,-1.524118,-0.318657,-0.980803,0.194696,-0.010898,-0.016603,0.044806,0.281146,-38.414082,11.895230,24.741028,,,,,,
1478477700.32,-1.571326,-0.192594,1.787531,0.762621,-1.181803,-0.318152,-0.981511,0.191406,0.000520,-0.025585,0.055619,0.241424,-37.581993,12.287787,25.804277,,,,,,
1478477700.33,-1.580532,-0.189114,1.794812,0.667160,-0.964548,-0.339141,-0.982125,0.187989,0.009562,-0.045707,0.063003,0.161779,-37.581993,12.287787,25.804277,,,,,,
1478477700.34,-1.588483,-0.185475,1.802325,0.711788,-0.873808,-0.362105,-0.982695,0.184413,0.017382,-0.079149,0.071385,0.081831,-37.041077,12.444012,26.502110,,,,,,
1478477700.35,-1.596361,-0.181655,1.810597,0.784092,-0.910289,-0.383748,-0.983225,0.180658,0.025142,-0.113379,0.057792,-0.002894,-36.838760,12.501060,26.756041,,,,,,
1478477700.36,-1.604802,-0.177510,1.819573,0.837591,-0.966431,-0.433539,-0.983717,0.176579,0.033465,-0.117677,0.042888,-0.057009,-36.838760,12.501060,26.756041,,,,,,
1478477700.38,-1.613232,-0.172715,1.828321,0.776566,-0.932794,-0.506122,-0.984235,0.171857,0.041792,-0.105792,0.017184,-0.067778,-36.419563,12.645829,27.257202,,,,,,
1478477700.39,-1.621169,-0.167011,1.835236,0.558372,-0.841860,-0.592979,-0.984835,0.166235,0.049651,-0.099149,-0.002142,-0.027145,-36.419563,12.645829,27.257202,,,,,,
1478477700.40,-1.628079,-0.161448,1.839405,0.292885,-0.668430,-0.524926,-0.985377,0.160747,0.056507,-0.090826,-0.013424,0.033459,-36.036400,12.654135,27.758013,,,,,,
1478477700.41,-1.632919,-0.157313,1.840593,0.025524,-0.411874,-0.344243,-0.985747,0.156665,0.061316,-0.052721,-0.004703,0.084176,-36.036400,12.654135,27.758013,,,,,,
1478477700.42,-1.635008,-0.155568,1.839530,-0.138630,-0.104580,-0.094245,-0.985888,0.154941,0.063393,0.027651,-0.037158,0.106926,-35.808910,12.427962,28.151804,,,,,,
1478477700.43,-1.633121,-0.156464,1.838223,-0.099131,0.310378,0.145838,-0.985867,0.155826,0.061524,0.095135,0.005444,0.082077,-35.808910,12.427962,28.151804,,,,,,
1478477700.44,-1.627045,-0.159630,1.837895,0.016723,0.659237,0.359930,-0.985725,0.158953,0.055505,0.160270,0.024855,0.019095,-35.822342,12.335536,28.175362,,,,,,
1478477700.45,-1.618828,-0.165112,1.838328,0.077702,0.788934,0.567118,-0.985262,0.164363,0.047360,0.218127,0.012868,-0.074200,-35.822342,12.335536,28.175362,,,,,,
1478477700.46,-1.611183,-0.172140,1.839040,0.101594,0.677957,0.691982,-0.984417,0.171291,0.039779,0.276455,0.017216,-0.114410,-36.113007,12.662130,27.654613,,,,,,
1478477700.47,-1.605325,-0.180959,1.840023,0.137621,0.493382,0.900435,-0.983085,0.179973,0.033958,0.324623,0.024967,-0.119850,-36.113007,12.662130,27.654613,,,,,,
1478477700.48,-1.601858,-0.193863,1.841876,0.244212,0.217145,1.322405,-0.980794,0.192651,0.030474,0.331395,0.001227,-0.152621,-36.270386,13.296345,27.146330,,,,,,
1478477700.49,-1.601636,-0.210442,1.845988,0.510668,-0.151232,1.640310,-0.977474,0.208892,0.030155,0.362239,-0.060379,-0.234134,-36.270386,13.296345,27.146330,,,,,,
1478477700.50,-1.604499,-0.229897,1.853974,0.901031,-0.542939,1.880678,-0.973137,0.227877,0.032809,0.417976,-0.032946,-0.302508,-35.931339,14.537592,26.960226,,,,,,
1478477700.51,-1.610243,-0.250962,1.866145,1.290870,-0.897481,1.967104,-0.967920,0.248336,0.038201,0.430598,0.009629,-0.339348,-35.519257,15.450388,26.998598,,,,,,
1478477700.52,-1.617049,-0.272603,1.881744,1.584275,-1.069260,2.015939,-0.962043,0.269239,0.044529,0.395897,0.048998,-0.353702,-35.519257,15.450388,26.998598,,,,,,
1478477700.53,-1.624472,-0.295559,1.899191,1.729615,-1.201689,2.131880,-0.955262,0.291275,0.051323,0.354630,0.080460,-0.320275,-34.302803,17.677753,27.204247,,,,,,
1478477700.54,-1.632524,-0.319834,1.917419,1.796548,-1.325831,2.235511,-0.947480,0.314409,0.058560,0.316193,0.045744,-0.291882,-34.302803,17.677753,27.204247,,,,,,
1478477700.55,-1.642071,-0.346426,1.935660,1.797469,-1.530943,2.507580,-0.938204,0.339539,0.066983,0.303850,0.068848,-0.256055,-32.737640,20.197168,27.378420,,,,,,
1478477700.56,-1.653642,-0.376657,1.952096,1.627625,-1.704065,2.823249,-0.926710,0.367813,0.076950,0.270903,0.070327,-0.250000,-32.737640,20.197168,27.378420,,,,,,
1478477700.57,-1.668364,-0.410570,1.965949,1.468828,-1.971713,3.210581,-0.912533,0.399132,0.089317,0.321087,-0.135567,-0.195762,-30.659325,22.927383,27.633263,,,,,,
1478477700.59,-1.685685,-0.447236,1.977819,1.370879,-2.153047,3.379025,-0.895702,0.432475,0.103361,0.332546,-0.102198,-0.102888,-30.659325,22.927383,27.633263,,,,,,
1478477700.60,-1.703729,-0.482263,1.988153,1.244125,-2.142777,3.098617,-0.878131,0.463785,0.117425,0.196674,-0.118464,-0.100045,-27.824121,25.763287,28.130547,,,,,,
1478477700.61,-1.721195,-0.511835,1.996180,0.996918,-1.978863,2.551415,-0.862005,0.489778,0.130631,0.043280,-0.142259,-0.069748,-27.824121,25.763287,28.130547,,,,,,
1478477700.62,-1.736895,-0.536114,2.001998,0.792776,-1.674548,2.103034,-0.847868,0.510799,0.142139,-0.094026,-0.078136,0.020626,-24.908386,28.096872,28.625072,,,,,,
1478477700.63,-1.747382,-0.557206,2.006316,0.659303,-1.051449,1.883318,-0.835537,0.528817,0.149097,-0.177662,-0.060922,0.117443,-24.908386,28.096872,28.625072,,,,,,
1478477700.64,-1.753437,-0.579001,2.009626,0.632138,-0.677139,2.056896,-0.823088,0.547188,0.152023,-0.131700,-0.127953,0.103165,-22.755730,29.590385,28.910938,,,,,,
1478477700.65,-1.758417,-0.603898,2.012860,0.709346,-0.654421,2.349523,-0.808683,0.567856,0.153531,-0.028948,-0.212326,0.064654,-22.755730,29.590385,28.910938,,,,,,
1478477700.66,-1.762977,-0.630604,2.017324,0.862537,-0.681413,2.433136,-0.792802,0.589633,0.154265,-0.021895,-0.274982,0.000734,-20.972828,30.972393,28.811596,,,,,,
1478477700.67,-1.765557,-0.656102,2.024569,1.054005,-0.654725,2.192612,-0.777395,0.610033,0.153350,-0.122827,-0.223696,-0.028152,-20.972828,30.972393,28.811596,,,,,,
1478477700.68,-1.766244,-0.676754,2.035038,1.171146,-0.697280,1.606324,-0.764766,0.626266,0.151404,-0.212498,-0.141189,-0.043570,-19.000439,32.511494,28.482325,,,,,,
1478477700.69,-1.766789,-0.688820,2.047109,1.014503,-0.816846,0.719355,-0.757217,0.635627,0.150339,-0.338395,-0.014914,-0.088022,-18.184212,33.200928,28.218599,,,,,,
1478477700.70,-1.775364,-0.691756,2.053925,0.401167,-1.389983,0.057890,-0.754069,0.637891,0.156446,-0.380636,0.188830,-0.117552,-18.184212,33.200928,28.218599,,,,,,
1478477700.71,-1.789944,-0.692578,2.057587,0.295939,-1.630343,0.035899,-0.751196,0.638523,0.167310,-0.343927,0.384273,0.011050,-17.196381,33.896713,28.009886,,,,,,
1478477700.72,-1.800363,-0.695502,2.064285,0.613944,-1.289926,0.222391,-0.747590,0.640771,0.174702,-0.169280,0.206519,0.263958,-17.196381,33.896713,28.009886,,,,,,
1478477700.73,-1.808731,-0.702627,2.069446,0.442155,-1.081323,0.730274,-0.741647,0.646225,0.179871,0.053643,-0.223419,0.075271,-16.240704,34.170731,28.246367,,,,,,
1478477700.74,-1.821730,-0.715664,2.065367,-0.130476,-0.939891,1.437095,-0.731022,0.656119,0.187388,0.129307,-0.229910,-0.155146,-16.240704,34.170731,28.246367,,,,,,
1478477700.75,-1.834022,-0.732174,2.055728,-0.262634,-0.391692,1.738678,-0.718106,0.668488,0.193514,0.210660,-0.079346,0.066221,-14.948646,34.631641,28.397959,,,,,,
1478477700.76,-1.838419,-0.749553,2.046782,-0.138878,0.316177,1.767762,-0.705936,0.681312,0.193568,0.222217,-0.099464,0.341878,-14.948646,34.631641,28.397959,,,,,,
1478477700.77,-1.838672,-0.768398,2.038177,-0.081571,0.568560,1.942165,-0.693381,0.694984,0.190314,0.148307,-0.180702,0.296197,-13.563108,35.016068,28.621208,,,,,,
1478477700.79,-1.841640,-0.790759,2.029316,0.019457,0.200089,2.299382,-0.677668,0.710887,0.188166,-0.025976,-0.095073,-0.008219,-13.563108,35.016068,28.621208,,,,,,
1478477700.80,-1.848462,-0.816677,2.020656,0.142921,-0.143013,2.597626,-0.658424,0.728875,0.187670,-0.002541,-0.121743,-0.254320,-12.299587,35.540707,28.545311,,,,,,
1478477700.81,-1.860641,-0.844921,2.010982,0.152375,-0.603467,2.799315,-0.636103,0.747918,0.189713,-0.115713,-0.154962,-0.198365,-12.299587,35.540707,28.545311,,,,,,
1478477700.82,-1.878621,-0.873589,1.999826,0.136905,-0.989369,2.795794,-0.611898,0.766638,0.194541,-0.157343,-0.088095,-0.211021,-10.146158,36.247696,28.502922,,,,,,
1478477700.83,-1.899305,-0.900055,1.988375,0.134099,-1.136631,2.513702,-0.588328,0.783361,0.200537,-0.106817,0.010141,-0.155173,-10.146158,36.247696,28.502922,,,,,,
1478477700.84,-1.916317,-0.922152,1.978872,0.193422,-0.773762,2.055872,-0.568403,0.796904,0.204603,-0.001818,0.087877,-0.044065,-7.455649,36.832611,28.583714,,,,,,
1478477700.85,-1.922697,-0.941152,1.972318,0.287186,0.135681,1.772054,-0.552771,0.808237,0.202969,0.115912,0.099523,0.089435,-6.342582,37.041508,28.582424,,,,,,
1478477700.86,-1.922447,-0.960185,1.965165,0.228241,0.666009,1.899613,-0.538281,0.819298,0.197496,0.210172,0.048424,0.246657,-6.342582,37.041508,28.582424,,,,,,
1478477700.87,-1.924365,-0.982354,1.953686,0.128517,0.712731,2.298435,-0.520731,0.831806,0.192190,0.190805,-0.034733,0.215494,-5.049973,37.414726,28.352999,,,,,,
1478477700.88,-1.930336,-1.008255,1.938344,0.121946,0.649093,2.652633,-0.499235,0.845903,0.187651,0.123610,-0.073976,0.080339,-5.049973,37.414726,28.352999,,,,,,
1478477700.89,-1.935005,-1.033911,1.923221,0.170425,0.851275,2.469631,-0.477913,0.859306,0.182188,0.048119,-0.107551,-0.032713,-3.571471,37.710930,28.184875,,,,,,
1478477700.90,-1.935642,-1.055757,1.909914,0.136415,1.067117,2.075485,-0.460148,0.870273,0.175751,0.047733,-0.021503,-0.035660,-3.571471,37.710930,28.184875,,,,,,
1478477700.91,-1.936967,-1.075929,1.897976,0.200907,0.766561,1.980920,-0.443431,0.880032,0.170040,-0.152806,0.164906,-0.001995,-2.232098,37.944427,28.008831,,,,,,
1478477700.92,-1.940354,-1.096378,1.888732,0.353753,0.343488,1.959607,-0.425979,0.889559,0.165005,-0.411835,0.031202,0.017978,-2.232098,37.944427,28.008831,,,,,,
1478477700.93,-1.946248,-1.117098,1.882986,0.526647,-0.204190,1.917384,-0.407762,0.898832,0.160719,-0.252867,-0.167280,0.049181,-1.040627,38.157352,27.788309,,,,,,
1478477700.94,-1.955964,-1.137723,1.877222,0.482205,-0.460343,1.905122,-0.388916,0.907680,0.157673,-0.118286,-0.166347,0.021984,-1.040627,38.157352,27.788309,,,,,,
1478477700.95,-1.971109,-1.157573,1.864857,0.190369,-0.310330,1.944982,-0.369815,0.915831,0.156492,0.120899,-0.050917,-0.035780,0.648308,38.456161,27.385395,,,,,,
1478477700.96,-1.991643,-1.176154,1.842379,-0.131847,0.121763,1.948980,-0.350929,0.923134,0.157072,0.194176,-0.097466,0.037401,0.648308,38.456161,27.385395,,,,,,
1478477700.97,-2.012458,-1.193309,1.815470,-0.207168,0.477018,1.856044,-0.333218,0.929594,0.157549,0.217938,-0.206342,0.062986,2.322294,38.455116,27.295921,,,,,,
1478477700.98,-2.032563,-1.209612,1.787733,-0.153482,0.543127,1.827495,-0.316371,0.935479,0.157442,0.209239,-0.295312,-0.071444,2.970841,38.347038,27.384945,,,,,,
1478477701.00,-2.052223,-1.227273,1.761135,0.028898,0.499116,1.897099,-0.298524,0.941574,0.155956,0.032456,-0.127228,-0.082363,2.970841,38.347038,27.384945,,,,,,
1478477701.01,-2.071241,-1.244178,1.735857,0.059588,0.437497,1.747728,-0.281497,0.947133,0.153945,-0.009061,-0.165272,-0.005019,4.156043,38.152279,27.502499,,,,,,
1478477701.02,-2.092982,-1.259837,1.709103,0.021348,0.327702,1.688933,-0.265195,0.952041,0.152611,-0.075518,-0.201247,0.143379,4.156043,38.152279,27.502499,,,,,,
1478477701.03,-2.119883,-1.275129,1.677184,-0.065997,0.352858,1.722815,-0.248546,0.956608,0.152073,-0.116353,-0.163044,0.148418,5.315001,38.006428,27.504885,,,,,,
1478477701.04,-2.152768,-1.289530,1.638181,-0.176886,0.461118,1.710801,-0.231878,0.960705,0.152574,-0.012674,-0.164181,0.045897,5.315001,38.006428,27.504885,,,,,,
1478477701.05,-2.185827,-1.302686,1.597210,-0.154787,0.657542,1.604782,-0.216367,0.964273,0.152849,0.008817,-0.121835,-0.029817,6.460855,37.737087,27.630165,,,,,,
1478477701.06,-2.217399,-1.315454,1.557695,-0.029134,0.583356,1.546526,-0.201590,0.967577,0.152172,-0.024484,-0.054094,-0.082149,6.460855,37.737087,27.630165,,,,,,
1478477701.07,-2.249556,-1.329022,1.520021,0.130765,0.365203,1.573367,-0.186357,0.970915,0.150318,-0.132628,-0.011320,-0.121433,7.358796,37.436470,27.813942,,,,,,
1478477701.08,-2.285464,-1.343300,1.479817,0.194531,0.304579,1.621916,-0.170352,0.974234,0.147811,-0.172192,0.041009,-0.075912,7.358796,37.436470,27.813942,,,,,,
1478477701.09,-2.329059,-1.357807,1.430322,0.158670,0.514848,1.738041,-0.153471,0.977403,0.145360,-0.076983,0.057982,0.052440,8.393880,37.258404,27.759874,,,,,,
1478477701.10,-2.378740,-1.372331,1.370869,0.157615,0.922281,1.815773,-0.136239,0.980370,0.142525,-0.064048,0.084709,0.130745,8.393880,37.258404,27.759874,,,,,,
1478477701.11,-2.436881,-1.386794,1.298686,0.139379,1.276294,1.910103,-0.118528,0.983119,0.139383,-0.081637,0.134358,0.076758,9.396160,37.022995,27.753677,,,,,,
1478477701.12,-2.509286,-1.400272,1.211119,0.074903,1.286753,1.943336,-0.100294,0.985496,0.136891,-0.137591,0.093255,-0.049962,9.396160,37.022995,27.753677,,,,,,
1478477701.13,-2.600996,-1.410739,1.108110,-0.118085,0.826155,1.872285,-0.082022,0.987218,0.136648,-0.089533,0.134776,-0.099081,10.144840,36.699585,27.919159,,,,,,
1478477701.14,-2.707500,-1.418066,0.994126,-0.175813,0.494965,1.803455,-0.063987,0.988359,0.138026,-0.059884,0.148634,-0.169353,10.595812,36.474525,28.046288,,,,,,
1478477701.15,-2.825072,-1.423908,0.874485,-0.072019,-0.092804,1.773176,-0.045556,0.989231,0.139090,0.043176,0.166469,-0.083395,10.595812,36.474525,28.046288,,,,,,
1478477701.16,-2.946535,-1.427993,0.755441,-0.053128,-0.385812,1.631220,-0.027585,0.989821,0.139620,0.026883,0.274019,-0.136476,11.774682,35.969196,28.228182,,,,,,
1478477701.17,-3.057546,-1.427684,0.647365,-0.294801,-0.375234,1.378583,-0.011973,0.989777,0.142121,0.000407,0.145706,-0.036744,11.774682,35.969196,28.228182,,,,,,
1478477701.18,3.134551,-1.423190,0.559782,-0.526854,-0.451147,1.123865,0.001036,0.989126,0.147067,0.023943,0.118616,-0.017794,13.165823,35.479500,28.233366,,,,,,
1478477701.20,3.068621,-1.416451,0.497840,-0.614608,-0.423331,0.843723,0.011208,0.988112,0.153324,0.043968,0.242936,-0.055057,13.165823,35.479500,28.233366,,,,,,
1478477701.21,3.024871,-1.410103,0.456619,-0.497967,-0.222763,0.607769,0.018633,0.987117,0.158914,0.031782,0.283330,-0.065057,14.201370,34.856140,28.506611,,,,,,
1478477701.22,3.008207,-1.406690,0.438951,-0.197589,0.168469,0.184827,0.021727,0.986565,0.161920,0.014101,0.270241,-0.000238,14.201370,34.856140,28.506611,,,,,,
1478477701.23,3.036194,-1.408883,0.465980,0.262035,0.065118,-0.718048,0.016959,0.986921,0.160312,-0.070899,0.266894,0.080060,14.622999,34.457371,28.776970,,,,,,
1478477701.24,3.136799,-1.416469,0.572176,0.749513,-0.633612,-1.828779,0.000737,0.988115,0.153714,-0.025624,0.199797,0.067905,14.622999,34.457371,28.776970,,,,,,
1478477701.25,-3.005351,-1.423329,0.727311,0.768598,-1.267924,-2.264225,-0.019957,0.989146,0.145572,-0.031374,0.139165,0.047681,13.952795,35.004719,28.447245,,,,,,
1478477701.26,-2.842748,-1.423582,0.903180,0.478810,-0.945936,-2.378093,-0.043186,0.989183,0.140182,-0.348614,0.072569,-0.027007,13.952795,35.004719,28.447245,,,,,,
1478477701.27,-2.700435,-1.417813,1.053743,0.188905,-0.561485,-2.128760,-0.065067,0.988321,0.137798,0.038777,0.094672,0.105458,12.913363,36.046776,27.624834,,,,,,
1478477701.28,-2.591964,-1.407507,1.168909,-0.120901,-0.501753,-1.955178,-0.084919,0.986698,0.138622,0.355305,0.060757,-0.060024,12.913363,36.046776,27.624834,,,,,,
1478477701.29,-2.502259,-1.393694,1.266377,-0.203135,-0.643477,-2.071712,-0.105118,0.984358,0.141381,0.350693,0.072633,-0.134668,11.641880,36.650318,27.394846,,,,,,
1478477701.30,-2.412425,-1.379713,1.367267,0.226797,-0.997979,-2.253301,-0.126536,0.981799,0.141631,0.144770,0.230481,-0.183257,11.029866,36.832981,27.403101,,,,,,
1478477701.31,-2.316435,-1.367202,1.481389,0.760747,-1.670338,-2.356889,-0.148541,0.979346,0.137175,-0.023807,0.308465,-0.236098,11.029866,36.832981,27.403101,,,,,,
1478477701.32,-2.236032,-1.356488,1.581822,0.835317,-1.613150,-1.901763,-0.167324,0.977124,0.131270,-0.185825,0.273014,-0.213210,9.939407,37.539455,26.856176,,,,,,
1478477701.33,-2.180451,-1.348421,1.649783,0.605169,-0.806958,-1.322638,-0.180815,0.975376,0.126282,-0.064302,0.133678,0.119934,9.939407,37.539455,26.856176,,,,,,
1478477701.34,-2.140338,-1.342631,1.694042,0.439460,-0.160052,-0.872351,-0.190486,0.974083,0.121972,0.349330,-0.041649,0.424475,9.296907,38.316021,25.975117,,,,,,
1478477701.35,-2.113496,-1.338191,1.720780,0.200932,0.133021,-0.602337,-0.197393,0.973069,0.119049,0.256429,-0.217210,0.360459,9.296907,38.316021,25.975117,,,,,,
1478477701.36,-2.103294,-1.334635,1.728023,-0.102771,0.374677,-0.294376,-0.201577,0.972243,0.118784,0.125878,-0.478774,0.160680,8.688305,38.674309,25.652826,,,,,,
1478477701.37,-2.100683,-1.334363,1.723684,-0.072940,0.769268,0.153181,-0.202114,0.972180,0.118391,0.025829,-0.620007,0.048051,8.688305,38.674309,25.652826,,,,,,
1478477701.38,-2.102137,-1.339077,1.705892,-0.154783,1.803591,0.768616,-0.197989,0.973273,0.116362,-0.004999,-0.484259,-0.122740,8.290800,38.669785,25.790831,,,,,,
1478477701.39,-2.126604,-1.343578,1.648571,-1.137151,3.330504,0.988667,-0.191359,0.974297,0.118858,0.136153,-0.538353,-0.160713,8.290800,38.669785,25.790831,,,,,,
1478477701.41,-2.189006,-1.342930,1.551531,-1.896165,2.776617,1.162442,-0.184089,0.974151,0.130926,0.277336,-0.698928,0.009546,7.702058,38.273186,26.553682,,,,,,
1478477701.42,-2.265203,-1.343063,1.453327,-1.476042,1.593219,1.304997,-0.173489,0.974181,0.144477,0.464505,-0.913191,0.154779,7.702058,38.273186,26.553682,,,,,,
1478477701.43,-2.311847,-1.349227,1.396789,-0.196963,0.519586,1.217714,-0.162130,0.975554,0.148352,0.298056,-0.504774,-0.129157,7.239740,37.097569,28.295107,,,,,,
1478477701.44,-2.343052,-1.360935,1.363445,0.308002,0.143596,1.290221,-0.149231,0.978060,0.145359,0.101364,-0.447420,-0.341801,7.239740,37.097569,28.295107,,,,,,
1478477701.45,-2.382065,-1.370940,1.318186,-0.010918,0.628975,1.283556,-0.136703,0.980095,0.143965,-0.395539,-0.014916,0.366151,7.931769,36.825832,28.464043,,,,,,
1478477701.46,-2.417974,-1.381234,1.272091,0.251506,0.943475,1.278356,-0.124759,0.982087,0.141212,-0.242505,-0.131074,0.710351,7.931769,36.825832,28.464043,,,,,,
1478477701.47,-2.432812,-1.392323,1.246618,0.546353,0.975556,0.912908,-0.115554,0.984116,0.134771,-0.226151,-0.118424,0.096369,8.511286,36.665268,28.503904,,,,,,
1478477701.48,-2.439870,-1.399439,1.228653,0.212219,1.011676,0.645013,-0.110076,0.985354,0.130231,-0.249482,-0.188159,-0.445295,8.617060,36.723713,28.396687,,,,,,
1478477701.49,-2.460361,-1.405119,1.200959,0.163008,0.448530,0.664847,-0.103859,0.986307,0.128110,-0.165749,-0.354761,-0.369427,8.617060,36.723713,28.396687,,,,,,
1478477701.50,-2.473500,-1.408681,1.193000,0.095586,-0.832202,0.126231,-0.099989,0.986888,0.126705,0.211882,-0.108104,-0.000743,8.643641,36.737991,28.370129,,,,,,
1478477701.51,-2.501496,-1.401860,1.177530,-0.902364,-1.150898,-0.188184,-0.100422,0.985764,0.134850,0.084263,-0.100342,-0.322105,8.643641,36.737991,28.370129,,,,,,
1478477701.52,-2.554667,-1.392985,1.128857,-1.140464,-0.321368,0.257976,-0.097954,0.984233,0.147275,-0.191108,0.037465,-0.289334,9.195088,36.587368,28.391396,,,,,,
1478477701.53,-2.592045,-1.385995,1.093362,-0.794145,-0.226394,0.095801,-0.095974,0.982973,0.156696,-0.075779,0.695097,0.087979,9.195088,36.587368,28.391396,,,,,,
1478477701.54,-2.600121,-1.380347,1.088532,-0.405214,-0.405009,-0.294167,-0.097565,0.981919,0.162221,0.244416,0.683654,0.042140,9.538669,35.939835,29.096371,,,,,,
1478477701.55,-2.589821,-1.376175,1.106352,-0.109600,-0.722617,-0.546999,-0.101377,0.981121,0.164695,0.062361,0.627659,0.128762,9.538669,35.939835,29.096371,,,,,,
1478477701.56,-2.579983,-1.374514,1.123510,0.103280,-0.617414,-0.259938,-0.103860,0.980798,0.165069,-0.094718,0.217734,-0.182464,9.586758,35.802189,29.249851,,,,,,
1478477701.57,-2.558850,-1.377360,1.150879,0.646354,-0.471629,-0.295032,-0.105788,0.981349,0.160505,0.041885,-0.084560,-0.126524,9.586758,35.802189,29.249851,,,,,,
1478477701.58,-2.529919,-1.381941,1.186443,0.660861,-0.681639,-0.310901,-0.107804,0.982220,0.153696,0.334810,-0.315395,0.277929,9.719602,36.029190,28.925478,,,,,,
1478477701.59,-2.498756,-1.381214,1.222599,0.224448,-0.237561,-0.634990,-0.112969,0.982083,0.150834,-0.051216,0.394138,-0.205659,9.719602,36.029190,28.925478,,,,,,
1478477701.61,-2.468225,-1.376619,1.252115,-0.096904,0.228566,-0.706368,-0.120334,0.981207,0.150841,-0.324582,0.636149,0.150032,9.691187,36.431530,28.426769,,,,,,
1478477701.62,-2.445973,-1.371035,1.271785,-0.191792,0.267418,-0.542822,-0.127169,0.980114,0.152330,-0.209058,0.445393,0.072447,9.691187,36.431530,28.426769,,,,,,
1478477701.63,-2.435843,-1.366196,1.279478,-0.281352,0.269581,-0.423959,-0.131780,0.979142,0.154642,-0.064921,0.597808,0.045508,9.059965,36.501457,28.545006,,,,,,
1478477701.64,-2.419515,-1.360393,1.292412,-0.219286,0.367845,-0.592746,-0.138041,0.977947,0.156732,-0.038671,0.527409,0.059638,8.828873,36.462608,28.666805,,,,,,
1478477701.65,-2.389736,-1.354191,1.318354,-0.052211,0.442345,-0.801315,-0.146787,0.976633,0.156979,-0.193195,0.186453,0.030826,8.828873,36.462608,28.666805,,,,,,
1478477701.66,-2.374055,-1.351572,1.329707,0.009556,0.402724,-0.168131,-0.151006,0.976066,0.156498,-0.155223,0.232155,-0.001210,8.083544,36.479584,28.864391,,,,,,
1478477701.67,-2.376247,-1.356496,1.322894,0.301751,0.465801,0.622405,-0.147330,0.977125,0.153361,-0.156548,-0.037627,-0.126246,8.083544,36.479584,28.864391,,,,,,
1478477701.68,-2.393312,-1.364292,1.296942,0.114889,0.907881,0.857536,-0.139505,0.978754,0.150265,-0.003470,-0.550943,-0.016140,7.854427,36.540108,28.851084,,,,,,
1478477701.69,-2.397990,-1.367823,1.283965,0.091667,0.602287,0.273661,-0.136460,0.979472,0.148371,-0.061050,-0.413691,0.205785,7.854427,36.540108,28.851084,,,,,,
1478477701.70,-2.394772,-1.369935,1.286590,0.212453,-0.071742,0.073380,-0.135531,0.979895,0.146413,-0.101911,-0.016684,0.062068,8.380828,39.024380,21.761734,,,,,,
1478477701.71,-2.387911,-1.372736,1.294711,0.318676,-0.084699,0.072679,-0.134654,0.980450,0.143478,0.181651,0.062839,-0.092254,8.380828,39.024380,21.761734,,,,,,
1478477701.72,-2.380045,-1.375318,1.302336,0.240241,0.067021,0.062854,-0.134031,0.980955,0.140582,0.110227,-0.040144,0.008588,8.460016,39.118942,21.560377,,,,,,
1478477701.73,-2.378554,-1.376470,1.302857,0.032993,0.078051,0.073166,-0.133459,0.981178,0.139565,-0.010569,-0.047111,0.010185,8.460016,39.118942,21.560377,,,,,,
1478477701.74,-2.388965,-1.375888,1.291579,-0.239863,0.087032,0.132851,-0.132389,0.981066,0.141363,-0.039120,-0.049700,-0.005835,8.486044,39.188683,21.423063,,,,,,
1478477701.75,-2.410049,-1.373952,1.269293,-0.491144,0.085007,0.193033,-0.130648,0.980689,0.145537,-0.030728,-0.041983,-0.050154,8.486044,39.188683,21.423063,,,,,,
1478477701.76,-2.448592,-1.368418,1.227433,-1.104293,0.294425,0.291027,-0.128408,0.979591,0.154636,-0.080652,-0.024406,-0.052524,8.575418,39.027119,21.680864,,,,,,
1478477701.77,-2.509055,-1.357626,1.161586,-1.686587,0.303709,0.386713,-0.125073,0.977365,0.170629,-0.087848,-0.022897,-0.061376,8.575418,39.027119,21.680864,,,,,,
1478477701.78,-2.554175,-1.349984,1.119474,-0.816224,-0.561523,0.225009,-0.121385,0.975720,0.182309,-0.096495,-0.018200,-0.175107,8.692762,38.380688,22.761194,,,,,,
1478477701.79,-2.563259,-1.349334,1.114034,0.072021,-0.192243,0.037819,-0.120071,0.975577,0.183934,0.167831,0.099999,-0.126775,8.901279,38.090759,23.164082,,,,,,
1478477701.80,-2.554936,-1.351474,1.120635,0.235996,0.246971,-0.015059,-0.120441,0.976045,0.181190,0.044468,0.098204,0.275566,8.901279,38.090759,23.164082,,,,,,
