timestamp(unix),attitude_roll(radians),attitude_pitch(radians),attitude_yaw(radians),rotation_rate_x(radians/s),rotation_rate_y(radians/s),rotation_rate_z(radians/s),gravity_x(G),gravity_y(G),gravity_z(G),user_acc_x(G),user_acc_y(G),user_acc_z(G),magnetic_field_x(microteslas),magnetic_field_y(microteslas),magnetic_field_z(microteslas),latitude(degree),longitude(degree),altitude(meter),speed(m/s),course(degree),timestamp(unix)
1478478744.67,-0.005338,0.457299,-2.964897,-0.099352,-0.643632,0.041244,-0.004790,-0.441526,-0.897236,-0.008180,-0.024828,0.020282,0.389320,-51.303284,-33.755135,,,,,,
1478478744.68,-0.012247,0.456141,-2.964150,-0.109658,-0.616774,0.074982,-0.010995,-0.440487,-0.897692,-0.010734,-0.045445,-0.003111,-0.068162,-51.286858,-33.782265,,,,,,
1478478744.69,-0.018539,0.455429,-2.963266,-0.042166,-0.537207,0.073387,-0.016648,-0.439847,-0.897918,-0.009154,-0.055865,0.009140,-0.068162,-51.286858,-33.782265,,,,,,
1478478744.70,-0.023721,0.455970,-2.962650,0.083259,-0.442218,0.044159,-0.021296,-0.440333,-0.897582,-0.009542,-0.040410,0.042937,-0.566578,-51.223709,-33.873260,,,,,,
1478478744.71,-0.027762,0.457244,-2.961642,0.123796,-0.305303,0.114794,-0.024907,-0.441477,-0.896927,-0.016642,-0.031332,0.047790,-0.760614,-51.242058,-33.841702,,,,,,
1478478744.72,-0.030618,0.458051,-2.959867,0.070744,-0.162362,0.137370,-0.027457,-0.442201,-0.896496,-0.054956,-0.021864,0.030346,-0.760614,-51.242058,-33.841702,,,,,,
1478478744.73,-0.031447,0.459224,-2.958795,0.131028,0.007940,0.076496,-0.028184,-0.443253,-0.895954,-0.054229,-0.020813,0.029804,-1.077217,-51.312408,-33.726311,,,,,,
1478478744.74,-0.041994,0.462028,-2.953660,0.162093,0.053383,-0.010898,-0.037580,-0.445764,-0.894361,-0.047168,0.029901,0.075636,-1.077217,-51.312408,-33.726311,,,,,,
1478478744.75,-0.041426,0.463668,-2.954521,0.151157,-0.006528,-0.099575,-0.037042,-0.447232,-0.893651,-0.108268,0.006940,0.082097,-1.645132,-51.445404,-33.500023,,,,,,
1478478744.76,-0.042632,0.465509,-2.956805,0.178911,-0.301947,-0.242589,-0.038084,-0.448877,-0.892781,-0.064867,0.023676,0.026036,-1.645132,-51.445404,-33.500023,,,,,,
1478478744.77,-0.046834,0.468154,-2.960675,0.262610,-0.634349,-0.359641,-0.041780,-0.451240,-0.891424,-0.034285,0.026511,0.007101,-1.561164,-51.562363,-33.323765,,,,,,
1478478744.78,-0.054180,0.471900,-2.964850,0.350291,-0.974960,-0.380834,-0.048234,-0.454579,-0.889399,-0.013518,0.036214,-0.000371,-1.561164,-51.562363,-33.323765,,,,,,
1478478744.79,-0.064821,0.476052,-2.969421,0.379490,-1.276212,-0.418253,-0.057573,-0.458274,-0.886945,-0.038130,0.144309,-0.058505,-1.678102,-51.774620,-32.987270,,,,,,
1478478744.80,-0.077302,0.480165,-2.974304,0.345485,-1.430789,-0.443117,-0.068492,-0.461925,-0.884270,-0.027760,0.094280,-0.028175,-1.678102,-51.774620,-32.987270,,,,,,
1478478744.81,-0.090208,0.483359,-2.979244,0.240721,-1.438891,-0.437133,-0.079765,-0.464756,-0.881839,-0.037361,0.063450,-0.066434,-2.114138,-52.043686,-32.535721,,,,,,
1478478744.82,-0.102034,0.484814,-2.984121,0.037272,-1.288148,-0.420539,-0.090119,-0.466044,-0.880160,-0.058960,0.035670,-0.073621,-2.114138,-52.043686,-32.535721,,,,,,
1478478744.83,-0.110711,0.483711,-2.989068,-0.195605,-0.954631,-0.395190,-0.097809,-0.465067,-0.879856,-0.047043,0.035929,-0.037640,-2.589962,-52.189865,-32.266045,,,,,,
1478478744.84,-0.117357,0.481234,-2.993409,-0.300277,-0.823572,-0.320421,-0.103789,-0.462873,-0.880327,-0.016099,0.000746,0.011248,-2.589962,-52.189865,-32.266045,,,,,,
1478478744.85,-0.124002,0.477689,-2.998198,-0.407739,-0.821255,-0.378428,-0.109839,-0.459728,-0.881241,-0.002527,-0.016789,0.055100,-2.819562,-52.066628,-32.445396,,,,,,
1478478744.87,-0.129195,0.473688,-3.003874,-0.450463,-0.715794,-0.449507,-0.114650,-0.456171,-0.882475,-0.005864,-0.012365,0.116393,-2.910499,-51.946331,-32.629669,,,,,,
1478478744.88,-0.132459,0.468787,-3.010722,-0.578355,-0.552621,-0.532601,-0.117824,-0.451805,-0.884302,-0.078938,0.103416,0.109629,-2.910499,-51.946331,-32.629669,,,,,,
1478478744.89,-0.131992,0.462229,-3.018345,-0.738370,-0.182317,-0.564465,-0.117798,-0.445944,-0.887275,-0.089523,0.069449,0.101020,-2.862501,-51.637848,-33.119873,,,,,,
1478478744.90,-0.127356,0.454776,-3.026236,-0.797338,0.190943,-0.581429,-0.114103,-0.439261,-0.891084,-0.123919,0.096274,0.110276,-2.862501,-51.637848,-33.119873,,,,,,
1478478744.91,-0.120131,0.447929,-3.034445,-0.699375,0.387316,-0.627482,-0.108019,-0.433100,-0.894850,-0.142607,0.063105,0.174498,-2.308681,-51.142723,-33.921669,,,,,,
1478478744.92,-0.112194,0.443209,-3.042737,-0.463352,0.402709,-0.670940,-0.101141,-0.428840,-0.897701,-0.140802,0.058525,0.195308,-2.308681,-51.142723,-33.921669,,,,,,
1478478744.93,-0.105781,0.441573,-3.051714,-0.163330,0.176622,-0.775625,-0.095457,-0.427362,-0.899027,-0.132967,0.043146,0.167856,-1.353257,-50.712822,-34.611649,,,,,,
1478478744.94,-0.103254,0.443438,-3.060911,0.175554,-0.152144,-0.848582,-0.093101,-0.429047,-0.898471,-0.119621,0.033448,0.098178,-1.353257,-50.712822,-34.611649,,,,,,
1478478744.95,-0.102450,0.448700,-3.070749,0.488293,-0.381035,-0.905205,-0.092148,-0.433795,-0.896287,-0.107865,0.034289,0.011247,-0.484918,-50.674568,-34.690643,,,,,,
1478478744.96,-0.103179,0.456790,-3.080723,0.730640,-0.504255,-0.931514,-0.092436,-0.441070,-0.892700,-0.133532,0.071456,-0.068299,-0.484918,-50.674568,-34.690643,,,,,,
1478478744.97,-0.104256,0.466081,-3.090379,0.793855,-0.505420,-0.895015,-0.092967,-0.449389,-0.888486,-0.123570,0.063433,-0.059482,0.193846,-51.071014,-34.107208,,,,,,
1478478744.98,-0.105222,0.473943,-3.099220,0.605451,-0.470331,-0.791626,-0.093451,-0.456398,-0.884855,-0.108896,0.033531,-0.043475,0.193846,-51.071014,-34.107208,,,,,,
1478478744.99,-0.107276,0.478699,-3.106065,0.311677,-0.498840,-0.555001,-0.095036,-0.460625,-0.882493,-0.090191,0.003883,0.005768,0.780523,-51.579353,-33.324898,,,,,,
1478478745.00,-0.110838,0.479572,-3.109905,-0.042752,-0.517074,-0.260555,-0.098133,-0.461399,-0.881748,-0.035274,-0.059520,0.050007,0.780523,-51.579353,-33.324898,,,,,,
1478478745.01,-0.116196,0.476547,-3.110465,-0.373402,-0.505796,0.070529,-0.103017,-0.458714,-0.882592,0.061681,-0.133419,0.084649,0.949990,-51.722527,-33.097816,,,,,,
1478478745.02,-0.116980,0.470763,-3.110593,-0.584368,0.048642,0.017652,-0.104017,-0.453566,-0.885132,0.125898,-0.175508,0.182449,0.771497,-51.620811,-33.260853,,,,,,
1478478745.03,-0.115687,0.464109,-3.111394,-0.652635,0.053270,0.006776,-0.103219,-0.447627,-0.888243,0.153161,-0.160970,0.279830,0.771497,-51.620811,-33.260853,,,,,,
1478478745.04,-0.116577,0.457099,-3.112979,-0.673332,-0.185947,-0.090054,-0.104372,-0.441347,-0.891246,-0.024199,-0.093107,0.361827,0.742768,-51.203190,-33.900871,,,,,,
1478478745.05,-0.114463,0.451370,-3.115850,-0.529127,0.196744,-0.199908,-0.102775,-0.436199,-0.893962,-0.015191,0.048717,0.190593,0.742768,-51.203190,-33.900871,,,,,,
1478478745.06,-0.109475,0.447248,-3.118046,-0.371710,0.402219,-0.110346,-0.098510,-0.432486,-0.896243,-0.167679,0.125662,0.201526,0.845119,-50.752224,-34.570004,,,,,,
1478478745.08,-0.105170,0.443819,-3.118096,-0.331258,0.424367,0.077511,-0.094806,-0.429391,-0.898129,-0.279813,0.084955,0.168804,0.845119,-50.752224,-34.570004,,,,,,
1478478745.09,-0.100215,0.437676,-3.115998,-0.663657,0.614645,0.298847,-0.090617,-0.423836,-0.901195,-0.228551,0.049370,0.019191,1.194349,-50.482384,-34.952682,,,,,,
1478478745.10,-0.092116,0.426510,-3.113075,-1.165905,0.984758,0.338086,-0.083745,-0.413696,-0.906555,-0.230800,0.080215,0.042664,1.194349,-50.482384,-34.952682,,,,,,
1478478745.11,-0.081134,0.409755,-3.113942,-1.735965,0.971093,-0.059925,-0.074336,-0.398385,-0.914201,-0.106527,0.233773,0.127015,1.417881,-49.897217,-35.774914,,,,,,
1478478745.12,-0.071819,0.387889,-3.119265,-2.215301,0.577381,-0.347189,-0.066426,-0.378235,-0.923323,-0.019435,0.130768,0.255782,1.417881,-49.897217,-35.774914,,,,,,
1478478745.13,-0.069640,0.363105,-3.123642,-2.409245,-0.160078,-0.144987,-0.065047,-0.355178,-0.932533,-0.033235,-0.066513,0.335441,2.196198,-48.462105,-37.658844,,,,,,
1478478745.14,-0.079038,0.338077,-3.124134,-2.333988,-1.175286,0.189662,-0.074486,-0.331674,-0.940449,-0.134483,-0.000952,0.314610,2.196198,-48.462105,-37.658844,,,,,,
1478478745.15,-0.096540,0.316835,-3.124290,-1.904183,-1.777053,0.145929,-0.091592,-0.311560,-0.945802,-0.064871,0.055350,0.306413,1.885840,-46.516788,-40.052711,,,,,,
1478478745.16,-0.116223,0.299318,-3.125757,-1.614988,-1.928661,0.000583,-0.110806,-0.294869,-0.949091,0.022793,0.020714,0.129954,1.885840,-46.516788,-40.052711,,,,,,
1478478745.17,-0.134322,0.282970,-3.129221,-1.587712,-1.752807,-0.155299,-0.128593,-0.279209,-0.951581,0.022620,0.048099,-0.083331,0.239151,-44.932590,-41.863979,,,,,,
1478478745.18,-0.147499,0.266036,-3.134262,-1.689733,-1.238198,-0.246404,-0.141795,-0.262909,-0.954344,0.009135,0.075287,-0.166993,-0.511544,-44.230167,-42.603027,,,,,,
1478478745.19,-0.154258,0.248002,-3.140800,-1.818884,-0.661607,-0.374515,-0.148946,-0.245468,-0.957894,-0.076503,0.066940,-0.187477,-0.511544,-44.230167,-42.603027,,,,,,
1478478745.20,-0.155947,0.228924,3.133486,-1.953967,-0.279691,-0.591409,-0.151264,-0.226930,-0.962093,-0.170193,0.032777,-0.159962,-1.246188,-42.664379,-44.156372,,,,,,
1478478745.21,-0.154308,0.209016,3.121726,-2.062679,-0.025887,-0.848687,-0.150352,-0.207498,-0.966612,-0.064233,-0.038978,-0.119127,-1.246188,-42.664379,-44.156372,,,,,,
1478478745.22,-0.150780,0.188984,3.107492,-2.086680,0.083468,-1.074094,-0.147535,-0.187861,-0.971052,-0.088167,-0.117833,-0.106814,-0.879267,-40.805283,-45.888378,,,,,,
1478478745.23,-0.147877,0.169303,3.091937,-2.058012,-0.028010,-1.178500,-0.145232,-0.168496,-0.974944,-0.096513,-0.130271,-0.069367,-0.879267,-40.805283,-45.888378,,,,,,
1478478745.24,-0.147414,0.150293,3.076290,-1.985250,-0.253787,-1.189582,-0.145225,-0.149728,-0.978004,-0.078942,-0.140967,-0.056924,0.072755,-38.772633,-47.626308,,,,,,
1478478745.25,-0.150942,0.132154,3.060590,-1.908370,-0.657520,-1.212318,-0.149058,-0.131770,-0.980009,-0.051030,-0.155279,-0.085893,0.072755,-38.772633,-47.626308,,,,,,
1478478745.26,-0.159800,0.115143,3.045045,-1.810376,-1.154316,-1.182894,-0.158068,-0.114889,-0.980722,0.013841,-0.124521,-0.082633,0.645348,-36.761684,-49.190948,,,,,,
1478478745.28,-0.173650,0.100747,3.030677,-1.465655,-1.547519,-1.090334,-0.171903,-0.100577,-0.979966,0.081922,-0.095529,-0.076995,0.645348,-36.761684,-49.190948,,,,,,
1478478745.29,-0.188728,0.092171,3.018429,-0.852115,-1.489268,-0.961041,-0.186813,-0.092041,-0.978074,0.125321,-0.096008,-0.095229,0.210077,-34.967026,-50.486141,,,,,,
1478478745.30,-0.199588,0.090106,3.008457,-0.218745,-0.974237,-0.871061,-0.197462,-0.089984,-0.976172,0.162549,-0.092115,-0.096811,0.210077,-34.967026,-50.486141,,,,,,
1478478745.31,-0.202994,0.094068,3.000232,0.340087,-0.184704,-0.829715,-0.200711,-0.093930,-0.975137,0.170804,-0.013477,-0.194022,-0.529642,-34.231369,-50.985493,,,,,,
1478478745.32,-0.198095,0.101907,2.993461,0.669409,0.568406,-0.739558,-0.195781,-0.101731,-0.975357,0.137965,0.089829,-0.269715,-0.529642,-34.231369,-50.985493,,,,,,
1478478745.33,-0.189496,0.109752,2.989236,0.609499,0.804464,-0.473361,-0.187230,-0.109531,-0.976190,0.039312,0.063725,-0.231756,0.057707,-34.673588,-50.688526,,,,,,
1478478745.34,-0.182600,0.113481,2.985902,0.171464,0.507781,-0.360617,-0.180419,-0.113238,-0.977050,-0.049241,0.023394,-0.214692,0.057707,-34.673588,-50.688526,,,,,,
1478478745.35,-0.181937,0.112124,2.981302,-0.326645,-0.155049,-0.425300,-0.179799,-0.111889,-0.977319,-0.115581,-0.027363,-0.217154,1.133499,-35.170139,-50.332531,,,,,,
1478478745.36,-0.186200,0.107231,2.974940,-0.626594,-0.526883,-0.539867,-0.184063,-0.107025,-0.977070,-0.072636,0.031418,-0.213832,1.290015,-35.056026,-50.408318,,,,,,
1478478745.37,-0.189707,0.100809,2.966312,-0.797635,-0.356825,-0.736534,-0.187614,-0.100639,-0.977074,-0.068459,0.048667,-0.195106,1.290015,-35.056026,-50.408318,,,,,,
1478478745.38,-0.191748,0.092334,2.956085,-1.031976,-0.293384,-0.801084,-0.189764,-0.092203,-0.977491,-0.046030,-0.023504,0.017164,1.251487,-34.337288,-50.901588,,,,,,
1478478745.39,-0.194309,0.082308,2.945966,-1.136432,-0.327925,-0.739460,-0.192435,-0.082215,-0.977860,-0.021966,-0.117965,0.071900,1.251487,-34.337288,-50.901588,,,,,,
1478478745.40,-0.196104,0.071874,2.936431,-1.148879,-0.201082,-0.685364,-0.194346,-0.071812,-0.978301,-0.024404,-0.142009,0.026976,1.472409,-33.185410,-51.654121,,,,,,
1478478745.41,-0.195983,0.061828,2.926426,-1.112962,0.006388,-0.771747,-0.194359,-0.061788,-0.978983,0.057411,-0.088129,0.043329,1.472409,-33.185410,-51.654121,,,,,,
1478478745.42,-0.193815,0.052208,2.915651,-1.093088,0.174061,-0.842972,-0.192341,-0.052184,-0.979940,0.133045,-0.062485,0.006765,1.805196,-31.918180,-52.436234,,,,,,
1478478745.43,-0.191800,0.042684,2.904534,-1.093887,0.119822,-0.864144,-0.190453,-0.042671,-0.980769,0.137138,-0.034050,-0.013311,1.805196,-31.918180,-52.436234,,,,,,
1478478745.44,-0.191161,0.033118,2.893602,-1.087718,-0.000323,-0.837498,-0.189895,-0.033112,-0.981246,0.118010,-0.024779,-0.038331,2.521564,-30.665636,-53.149300,,,,,,
1478478745.45,-0.191562,0.023463,2.883390,-1.085606,-0.082659,-0.751452,-0.190340,-0.023461,-0.981438,0.054583,-0.043953,-0.098610,2.521564,-30.665636,-53.149300,,,,,,
1478478745.46,-0.191843,0.014117,2.874631,-0.998974,-0.005401,-0.612916,-0.190649,-0.014117,-0.981557,-0.010446,-0.012098,-0.148280,3.009955,-29.393568,-53.838146,,,,,,
1478478745.47,-0.189169,0.006527,2.867363,-0.781012,0.350058,-0.521333,-0.188039,-0.006527,-0.982140,-0.038294,0.007412,-0.155128,3.009955,-29.393568,-53.838146,,,,,,
1478478745.49,-0.182379,0.001227,2.861360,-0.540542,0.728089,-0.450656,-0.181370,-0.001227,-0.983414,-0.089138,0.017005,-0.152832,3.487891,-28.288721,-54.398258,,,,,,
1478478745.50,-0.173807,-0.001390,2.856523,-0.250733,0.815921,-0.393991,-0.172933,0.001390,-0.984933,-0.096690,0.018966,-0.102760,3.487891,-28.288721,-54.398258,,,,,,
1478478745.51,-0.165844,-0.000488,2.852873,0.121420,0.736144,-0.346798,-0.165085,0.000488,-0.986279,-0.066437,-0.024612,-0.088138,4.582282,-27.720430,-54.609230,,,,,,
1478478745.52,-0.159083,0.003692,2.849966,0.416965,0.601816,-0.337811,-0.158411,-0.003692,-0.987366,-0.033300,-0.044770,-0.069106,5.121070,-27.717066,-54.563049,,,,,,
1478478745.53,-0.154343,0.009922,2.847350,0.569073,0.404788,-0.328611,-0.153723,-0.009922,-0.988064,0.014929,-0.019909,-0.100223,5.121070,-27.717066,-54.563049,,,,,,
1478478745.54,-0.150343,0.015778,2.845371,0.493635,0.375292,-0.258068,-0.149759,-0.015777,-0.988597,0.066141,-0.004227,-0.106206,5.944149,-28.188902,-54.236893,,,,,,
1478478745.55,-0.146628,0.020105,2.843047,0.332187,0.343719,-0.295433,-0.146074,-0.020104,-0.989069,0.133745,-0.025886,-0.063604,5.944149,-28.188902,-54.236893,,,,,,
1478478745.56,-0.142407,0.024010,2.839220,0.343860,0.426854,-0.465918,-0.141886,-0.024008,-0.989592,0.163309,-0.090479,0.004835,6.522174,-28.662476,-53.921345,,,,,,
1478478745.57,-0.138847,0.028987,2.833007,0.375846,0.207801,-0.715635,-0.138343,-0.028983,-0.989960,0.107353,-0.103829,0.036713,6.522174,-28.662476,-53.921345,,,,,,
1478478745.58,-0.141108,0.032622,2.824817,0.180860,-0.317936,-0.835900,-0.140566,-0.032616,-0.989534,0.036119,-0.066154,0.027910,7.250196,-28.981468,-53.657215,,,,,,
1478478745.59,-0.142948,0.034297,2.816655,0.010245,-0.158799,-0.765009,-0.142377,-0.034290,-0.989218,0.046964,-0.019680,0.121481,7.250196,-28.981468,-53.657215,,,,,,
1478478745.60,-0.144456,0.035662,2.809327,0.055972,-0.177643,-0.697802,-0.143863,-0.035654,-0.988955,0.107028,-0.105795,-0.148282,7.493421,-29.015526,-53.605370,,,,,,
1478478745.61,-0.145872,0.038638,2.802289,0.232526,-0.146812,-0.708039,-0.145247,-0.038629,-0.988641,0.144255,-0.121436,-0.040045,7.493421,-29.015526,-53.605370,,,,,,
1478478745.62,-0.146842,0.043914,2.795023,0.450671,-0.113959,-0.781484,-0.146174,-0.043900,-0.988284,0.094248,-0.069762,-0.052701,7.739053,-29.022047,-53.566925,,,,,,
1478478745.63,-0.147828,0.051329,2.787280,0.628949,-0.139660,-0.832440,-0.147096,-0.051306,-0.987791,0.058244,0.001791,-0.161822,7.739053,-29.022047,-53.566925,,,,,,
1478478745.64,-0.150074,0.059017,2.780702,0.607844,-0.299399,-0.676742,-0.149251,-0.058983,-0.987039,0.054647,0.003868,-0.221641,8.086395,-29.443485,-53.284885,,,,,,
1478478745.65,-0.155510,0.064282,2.776251,0.358521,-0.633175,-0.430643,-0.154564,-0.064238,-0.985892,0.091469,-0.009508,-0.236688,8.086395,-29.443485,-53.284885,,,,,,
1478478745.66,-0.164632,0.066079,2.773669,0.058517,-0.955766,-0.227163,-0.163532,-0.066031,-0.984326,0.114338,0.020575,-0.130695,8.025464,-29.932222,-53.021141,,,,,,
1478478745.67,-0.176049,0.066516,2.771505,0.032392,-1.139024,-0.218315,-0.174754,-0.066467,-0.982366,0.139063,0.030670,-0.011668,7.617483,-29.982382,-53.052979,,,,,,
1478478745.68,-0.187772,0.070314,2.769131,0.434845,-1.096227,-0.312570,-0.186209,-0.070257,-0.979995,0.238409,0.030935,0.059325,7.617483,-29.982382,-53.052979,,,,,,
1478478745.70,-0.195831,0.080519,2.767326,1.093879,-0.644186,-0.359744,-0.193951,-0.080432,-0.977708,0.248822,0.021945,0.060884,6.528928,-30.124859,-53.117359,,,,,,
1478478745.71,-0.197362,0.097535,2.766831,1.718149,0.026197,-0.366954,-0.195151,-0.097381,-0.975927,0.141486,0.039138,-0.038737,6.528928,-30.124859,-53.117359,,,,,,
1478478745.72,-0.192128,0.118121,2.766688,1.942586,0.626421,-0.405735,-0.189618,-0.117846,-0.974760,-0.084674,0.036013,-0.271761,6.242653,-31.463394,-52.370522,,,,,,
1478478745.73,-0.182775,0.137720,2.765603,1.740005,0.950930,-0.463196,-0.180038,-0.137285,-0.974032,-0.156586,0.068514,-0.274884,6.242653,-31.463394,-52.370522,,,,,,
1478478745.74,-0.170925,0.152800,2.763164,1.233149,1.124815,-0.474675,-0.168112,-0.152206,-0.973946,-0.187235,0.086380,-0.218116,7.274397,-33.431942,-50.999767,,,,,,
1478478745.75,-0.158192,0.161764,2.760345,0.653027,1.174834,-0.368608,-0.155476,-0.161059,-0.974622,-0.152263,0.066821,-0.128986,7.274397,-33.431942,-50.999767,,,,,,
1478478745.76,-0.146286,0.165017,2.758264,0.166651,1.064077,-0.194697,-0.143785,-0.164269,-0.975880,-0.048018,0.030388,-0.034298,8.789344,-34.510578,-50.033539,,,,,,
1478478745.77,-0.136656,0.164649,2.757756,-0.088845,0.849302,0.013737,-0.134388,-0.163906,-0.977279,-0.018337,0.024792,0.120071,8.789344,-34.510578,-50.033539,,,,,,
1478478745.78,-0.129924,0.163496,2.759000,-0.074998,0.594626,0.160504,-0.127831,-0.162769,-0.978348,0.056252,-0.000699,0.243409,9.944872,-34.606636,-49.750053,,,,,,
1478478745.79,-0.125507,0.163676,2.761298,0.084492,0.426859,0.224509,-0.123504,-0.162946,-0.978874,0.129287,-0.007845,0.252831,9.944872,-34.606636,-49.750053,,,,,,
1478478745.80,-0.121143,0.165169,2.764101,0.197689,0.484234,0.247250,-0.119202,-0.164419,-0.979162,0.147339,0.001653,0.180761,10.403423,-34.617916,-49.648327,,,,,,
1478478745.81,-0.115752,0.167235,2.766825,0.228403,0.576181,0.217933,-0.113883,-0.166457,-0.979450,0.114447,0.023726,0.069660,10.553782,-34.735081,-49.534630,,,,,,
1478478745.82,-0.109846,0.169376,2.768912,0.220600,0.592723,0.157445,-0.108057,-0.168567,-0.979749,0.053903,0.025043,0.011686,10.553782,-34.735081,-49.534630,,,,,,
1478478745.83,-0.104440,0.171370,2.770635,0.201052,0.517296,0.142492,-0.102723,-0.170532,-0.979983,0.018022,0.022812,0.020098,11.003830,-35.014038,-49.239422,,,,,,
1478478745.84,-0.100491,0.172878,2.772873,0.149377,0.374162,0.214070,-0.098827,-0.172019,-0.980124,-0.008061,0.024237,0.021445,11.003830,-35.014038,-49.239422,,,,,,
1478478745.85,-0.097832,0.174094,2.775495,0.141408,0.279969,0.232716,-0.096199,-0.173216,-0.980174,-0.018745,0.000746,0.051753,11.372988,-35.244568,-48.990440,,,,,,
1478478745.86,-0.095553,0.175566,2.777696,0.170680,0.247278,0.171141,-0.093941,-0.174665,-0.980136,0.009209,-0.004610,0.083255,11.372988,-35.244568,-48.990440,,,,,,
1478478745.87,-0.093298,0.177590,2.778754,0.207360,0.225065,0.045720,-0.091697,-0.176658,-0.979992,-0.005638,0.012198,0.123317,11.497576,-35.449135,-48.813442,,,,,,
1478478745.88,-0.090952,0.179570,2.778258,0.170667,0.212449,-0.096865,-0.089367,-0.178606,-0.979854,-0.008824,0.005572,0.099010,11.497576,-35.449135,-48.813442,,,,,,
1478478745.90,-0.088479,0.181090,2.776681,0.122632,0.205409,-0.175933,-0.086918,-0.180102,-0.979800,-0.035228,0.001528,0.079028,11.720203,-35.647903,-48.615341,,,,,,
1478478745.91,-0.086274,0.182643,2.774787,0.140671,0.164794,-0.186025,-0.084734,-0.181629,-0.979710,-0.049772,-0.005779,0.042957,11.720203,-35.647903,-48.615341,,,,,,
1478478745.92,-0.084788,0.184560,2.773352,0.180511,0.096566,-0.132787,-0.083249,-0.183514,-0.979486,-0.046420,-0.003803,0.016809,12.048043,-35.738190,-48.468689,,,,,,
1478478745.93,-0.088940,0.183686,2.773616,0.237952,-0.095669,-0.026916,-0.087329,-0.182655,-0.979291,-0.009885,0.009193,-0.002917,12.048043,-35.738190,-48.468689,,,,,,
1478478745.94,-0.091766,0.186579,2.775050,0.305622,-0.290961,0.155194,-0.090047,-0.185499,-0.978510,0.030401,0.027845,0.006403,11.952736,-35.768833,-48.469688,,,,,,
1478478745.95,-0.097071,0.190345,2.778604,0.421377,-0.494668,0.343045,-0.095169,-0.189198,-0.977316,0.065765,0.057667,0.025061,11.952736,-35.768833,-48.469688,,,,,,
1478478745.96,-0.105657,0.196005,2.784251,0.660556,-0.800117,0.512319,-0.103441,-0.194753,-0.975383,0.087114,0.081197,0.049815,11.450914,-36.161530,-48.299152,,,,,,
1478478745.97,-0.118585,0.205150,2.792027,1.046871,-1.176195,0.656702,-0.115826,-0.203715,-0.972155,0.100613,0.107035,0.088961,11.450914,-36.161530,-48.299152,,,,,,
1478478745.98,-0.135856,0.217662,2.801788,1.362268,-1.535209,0.780149,-0.132243,-0.215948,-0.967408,0.115657,0.142675,0.122529,10.122065,-37.061756,-47.911980,,,,,,
1478478745.99,-0.157484,0.231284,2.813597,1.451680,-1.903301,0.938507,-0.152658,-0.229227,-0.961327,0.139962,0.163034,0.124993,9.100586,-37.787666,-47.548492,,,,,,
1478478746.00,-0.183973,0.244173,2.827745,1.417593,-2.299613,1.128673,-0.177511,-0.241754,-0.953963,0.164510,0.175393,0.147383,9.100586,-37.787666,-47.548492,,,,,,
1478478746.01,-0.215025,0.255701,2.844155,1.361634,-2.652712,1.311662,-0.206435,-0.252923,-0.945206,0.175032,0.194833,0.248230,6.312783,-39.370930,-46.708309,,,,,,
1478478746.02,-0.249649,0.265392,2.862835,1.260423,-2.888715,1.507964,-0.238414,-0.262288,-0.935074,0.201976,0.195485,0.379868,6.312783,-39.370930,-46.708309,,,,,,
1478478746.03,-0.287665,0.272267,2.884082,1.105232,-3.151654,1.779982,-0.273263,-0.268916,-0.923586,0.231957,0.185084,0.510043,2.535503,-40.795017,-45.835854,,,,,,
1478478746.04,-0.330437,0.275363,2.908323,0.903388,-3.556336,2.108909,-0.312233,-0.271896,-0.910265,0.270287,0.214340,0.695254,2.535503,-40.795017,-45.835854,,,,,,
1478478746.05,-0.379697,0.274265,2.935137,0.710828,-4.153651,2.410561,-0.356787,-0.270839,-0.894063,0.329870,0.221813,0.755010,-2.199051,-41.804863,-44.934452,,,,,,
1478478746.06,-0.436395,0.269245,2.964249,0.602270,-4.819784,2.720720,-0.407447,-0.266003,-0.873630,0.401068,0.257550,0.778095,-2.199051,-41.804863,-44.934452,,,,,,
1478478746.07,-0.501073,0.260901,2.996539,0.660859,-5.520216,3.111137,-0.464110,-0.257951,-0.847386,0.470259,0.293977,0.763875,-8.433607,-42.170265,-43.842113,,,,,,
1478478746.08,-0.573403,0.249643,3.035083,1.001482,-6.079201,3.792681,-0.525677,-0.247058,-0.814018,0.528118,0.291645,0.718559,-8.433607,-42.170265,-43.842113,,,,,,
1478478746.09,-0.652145,0.233852,3.084684,1.554418,-6.448976,4.916846,-0.590373,-0.231726,-0.773151,0.565212,0.301047,0.623416,-16.448017,-41.989418,-41.688599,,,,,,
1478478746.11,-0.737220,0.210754,-3.135890,2.209268,-6.897099,6.165224,-0.657358,-0.209197,-0.723959,0.600595,0.374221,0.493567,-16.448017,-41.989418,-41.688599,,,,,,
1478478746.12,-0.829699,0.181081,-3.061157,3.190980,-7.624407,7.172836,-0.725666,-0.180093,-0.664060,0.653599,0.525857,0.344999,-26.503521,-41.029118,-37.225834,,,,,,
1478478746.13,-0.932100,0.145077,-2.973944,4.464504,-8.650637,8.054798,-0.794440,-0.144568,-0.589886,0.762686,0.657431,0.166409,-26.503521,-41.029118,-37.225834,,,,,,
1478478746.14,-1.044219,0.101523,-2.873973,6.009108,-9.775722,8.828281,-0.860081,-0.101349,-0.499989,0.880574,0.707352,-0.015514,-38.225647,-38.428036,-28.873407,,,,,,
1478478746.15,-1.164259,0.049024,-2.762102,7.626120,-10.838952,9.358928,-0.917392,-0.049005,-0.394956,0.827396,0.789529,-0.243594,-44.194382,-36.190514,-22.554178,,,,,,
1478478746.16,-1.281226,-0.016365,-2.643783,8.684114,-10.864345,9.751152,-0.958238,0.016364,-0.285503,0.774934,0.695154,-0.459615,-44.194382,-36.190514,-22.554178,,,,,,
1478478746.17,-1.382748,-0.094101,-2.528755,8.884810,-10.007393,9.754301,-0.978025,0.093962,-0.186115,0.701719,0.612138,-0.562619,-53.979893,-28.676470,-5.951349,,,,,,
1478478746.18,-1.462854,-0.182494,-2.426344,8.001122,-8.532125,9.717867,-0.977671,0.181483,-0.105944,0.514032,0.769048,-0.586851,-53.979893,-28.676470,-5.951349,,,,,,
1478478746.19,-1.517106,-0.276930,-2.349845,5.742248,-6.157769,9.429319,-0.960513,0.273404,-0.051620,0.325336,0.833544,-0.381775,-58.308746,-16.701687,9.629707,,,,,,
1478478746.20,-1.542374,-0.370786,-2.301286,3.510509,-3.031319,8.989880,-0.931666,0.362348,-0.026488,-0.029118,0.971011,-0.201662,-58.308746,-16.701687,9.629707,,,,,,
1478478746.21,-1.535222,-0.462567,-2.271051,2.069858,0.367634,8.769436,-0.894344,0.446247,-0.031829,-0.183049,0.598233,0.524261,-58.778008,-3.711895,17.405603,,,,,,
1478478746.22,-1.496393,-0.552759,-2.244474,1.725923,3.048960,8.641942,-0.848724,0.525038,-0.063264,-0.336365,0.628649,0.791689,-58.778008,-3.711895,17.405603,,,,,,
1478478746.23,-1.433352,-0.637469,-2.208541,2.088051,4.289351,8.167538,-0.796026,0.595164,-0.110104,-0.607020,0.706258,0.638958,-58.740257,7.847944,16.111483,,,,,,
1478478746.24,-1.355596,-0.711707,-2.157511,2.630190,4.301449,7.417212,-0.739781,0.653127,-0.161705,-0.846996,0.738627,0.240990,-58.740257,7.847944,16.111483,,,,,,
1478478746.25,-1.270715,-0.771560,-2.093524,2.947685,3.829990,6.363966,-0.684791,0.697254,-0.211891,-1.020531,0.669247,-0.075584,-57.729294,18.242079,10.302556,,,,,,
1478478746.26,-1.186869,-0.815383,-2.025619,2.800308,3.198813,5.148492,-0.635679,0.727988,-0.256798,-1.094621,0.549203,-0.128319,-57.729294,18.242079,10.302556,,,,,,
1478478746.27,-1.120737,-0.848262,-1.973205,1.211986,2.379040,3.857756,-0.595438,0.750132,-0.287672,-1.239325,0.418447,-0.081529,-55.495399,25.900530,4.583744,,,,,,
1478478746.28,-1.103052,-0.878668,-1.976207,-2.175859,1.998832,2.098230,-0.569629,0.769889,-0.287738,-1.279965,0.223855,0.037097,-55.495399,25.900530,4.583744,,,,,,
1478478746.29,-1.100904,-0.908545,-2.009777,-3.212472,2.856514,1.573300,-0.548250,0.788610,-0.278418,-1.301314,0.136423,0.196921,-53.665245,29.797821,1.928338,,,,,,
1478478746.31,-1.092373,-0.933276,-2.040357,-2.323250,3.223005,1.132295,-0.528376,0.803574,-0.274020,-1.408987,0.173293,0.545581,-53.193810,30.660585,1.390943,,,,,,
1478478746.32,-1.076830,-0.941915,-2.060854,-1.144277,2.859020,-0.170337,-0.517922,0.808686,-0.278897,-1.929909,-0.030458,2.225919,-53.193810,30.660585,1.390943,,,,,,
1478478746.33,-1.077787,-0.935359,-2.080808,-0.572045,0.880050,-1.331821,-0.522848,0.804812,-0.280905,-1.666499,-0.248767,1.037878,-52.739494,31.458149,-0.719890,,,,,,
1478478746.34,-1.100104,-0.920477,-2.099261,-0.175161,-1.174842,-1.831043,-0.539602,0.795891,-0.274569,-1.349894,-0.136863,0.411822,-52.739494,31.458149,-0.719890,,,,,,
1478478746.35,-1.131167,-0.901976,-2.112232,0.164503,-2.151519,-1.915127,-0.561099,0.784554,-0.263900,-1.082807,-0.040001,0.024627,-53.642479,29.890255,-0.803196,,,,,,
1478478746.36,-1.161388,-0.884029,-2.121497,0.183547,-2.135743,-1.720112,-0.581641,0.773300,-0.252391,-0.841378,0.128052,-0.198674,-53.642479,29.890255,-0.803196,,,,,,
1478478746.37,-1.186565,-0.869857,-2.130573,-0.058638,-1.565204,-1.360398,-0.597912,0.764236,-0.241752,-0.554874,0.188522,-0.241463,-54.748169,27.785275,1.484508,,,,,,
1478478746.38,-1.203945,-0.860046,-2.139870,-0.221859,-0.785256,-0.993267,-0.608992,0.757873,-0.234002,-0.322312,0.386002,-0.247001,-54.748169,27.785275,1.484508,,,,,,
1478478746.39,-1.213124,-0.853042,-2.148158,-0.247731,-0.125800,-0.757029,-0.616072,0.753285,-0.230256,-0.251024,0.405453,-0.209503,-55.404335,26.311825,3.104111,,,,,,
1478478746.40,-1.216584,-0.847328,-2.155146,-0.211668,0.233293,-0.639925,-0.620892,0.749514,-0.229612,-0.184803,0.356214,-0.199771,-55.404335,26.311825,3.104111,,,,,,
1478478746.41,-1.218284,-0.841742,-2.161196,-0.157595,0.260791,-0.635930,-0.625201,0.745805,-0.229998,-0.175031,0.261138,-0.214277,-55.800293,25.437511,3.293647,,,,,,
1478478746.42,-1.220310,-0.835475,-2.166427,-0.090911,0.142926,-0.689394,-0.630043,0.741616,-0.230331,-0.191155,0.188423,-0.208390,-55.800293,25.437511,3.293647,,,,,,
1478478746.43,-1.223897,-0.828388,-2.171315,-0.066495,-0.052942,-0.761775,-0.635792,0.736843,-0.229851,-0.208370,0.116459,-0.183876,-56.158928,24.660027,3.105674,,,,,,
1478478746.44,-1.230666,-0.820440,-2.177835,-0.178768,-0.226908,-0.889237,-0.642834,0.731446,-0.227489,-0.240802,0.058425,-0.152455,-56.158928,24.660027,3.105674,,,,,,
1478478746.45,-1.241142,-0.811640,-2.188542,-0.462955,-0.255484,-1.075599,-0.651247,0.725417,-0.222816,-0.262785,0.000886,-0.123619,-56.558029,23.708549,3.268241,,,,,,
1478478746.46,-1.256075,-0.801180,-2.204749,-0.770795,-0.334182,-1.347308,-0.661681,0.718178,-0.215405,-0.273286,-0.052544,-0.085255,-56.799820,23.087166,3.514426,,,,,,
1478478746.47,-1.275856,-0.788422,-2.225014,-0.963606,-0.564135,-1.638106,-0.674525,0.709241,-0.204921,-0.279668,-0.081586,-0.048603,-56.799820,23.087166,3.514426,,,,,,
1478478746.48,-1.297682,-0.773045,-2.246774,-1.001289,-0.618112,-1.862180,-0.689257,0.698318,-0.193071,-0.274778,-0.133651,0.046144,-57.429909,21.311962,4.381019,,,,,,
1478478746.49,-1.317912,-0.755458,-2.267191,-0.880645,-0.571481,-2.025570,-0.704805,0.685622,-0.182133,-0.272933,-0.084426,0.027714,-57.429909,21.311962,4.381019,,,,,,
1478478746.50,-1.336111,-0.735114,-2.284906,-0.686135,-0.595859,-2.221036,-0.721421,0.670671,-0.172485,-0.211776,-0.065523,-0.056519,-58.169960,18.905193,5.516961,,,,,,
1478478746.52,-1.351769,-0.711830,-2.301118,-0.626446,-0.390253,-2.508182,-0.739078,0.653221,-0.164517,-0.148876,-0.007545,-0.038455,-58.169960,18.905193,5.516961,,,,,,
1478478746.53,-1.364137,-0.684610,-2.319428,-0.828090,0.065657,-2.894084,-0.758182,0.632371,-0.158955,-0.123852,-0.026719,-0.110027,-58.946533,15.990503,6.418554,,,,,,
1478478746.54,-1.374777,-0.656716,-2.341337,-1.139794,0.311174,-2.901502,-0.776834,0.610519,-0.154256,-0.112219,0.004075,-0.202251,-58.946533,15.990503,6.418554,,,,,,
1478478746.55,-1.386149,-0.631590,-2.364297,-1.288663,0.193813,-2.584019,-0.793370,0.590429,-0.148182,-0.009776,0.206446,-0.025479,-59.815598,12.281799,6.545149,,,,,,
1478478746.56,-1.397259,-0.610587,-2.386262,-1.316990,0.170301,-2.164584,-0.807006,0.573348,-0.141469,0.060195,0.202500,0.039235,-59.815598,12.281799,6.545149,,,,,,
1478478746.57,-1.405317,-0.592987,-2.406884,-1.312582,0.422537,-1.864618,-0.817947,0.558840,-0.136603,0.207839,0.070692,-0.081720,-60.395473,8.978142,6.585387,,,,,,
1478478746.58,-1.409924,-0.576195,-2.427019,-1.309648,0.659840,-1.846506,-0.827715,0.544837,-0.134317,0.285387,0.031106,-0.124212,-60.395473,8.978142,6.585387,,,,,,
1478478746.59,-1.412677,-0.559149,-2.445207,-1.127721,0.661850,-1.808346,-0.837132,0.530465,-0.133481,0.243962,0.009819,-0.054431,-60.764305,6.406637,6.183975,,,,,,
1478478746.60,-1.413705,-0.544201,-2.460387,-0.953077,0.666549,-1.509102,-0.845006,0.517735,-0.133846,0.079763,0.107479,0.037166,-60.764305,6.406637,6.183975,,,,,,
1478478746.61,-1.414293,-0.534681,-2.475381,-1.180616,0.627850,-0.898507,-0.849915,0.509567,-0.134111,0.012986,0.266953,-0.053099,-61.034561,4.077145,5.454074,,,,,,
1478478746.62,-1.427139,-0.535925,-2.494963,-1.706046,-0.638024,0.132006,-0.850940,0.510636,-0.123091,0.152545,0.235290,-0.165346,-61.034561,4.077145,5.454074,,,,,,
1478478746.63,-1.454679,-0.545906,-2.513656,-1.540817,-2.043595,0.918519,-0.848902,0.519193,-0.099017,0.313364,0.136264,-0.084256,-61.103569,3.155231,5.290218,,,,,,
1478478746.64,-1.489368,-0.560516,-2.524507,-0.815868,-2.944847,1.401666,-0.844175,0.531623,-0.068892,0.388990,0.161355,0.056151,-60.972328,3.531887,6.441147,,,,,,
1478478746.65,-1.523900,-0.577201,-2.525345,0.044148,-3.312464,1.614067,-0.837072,0.545681,-0.039284,0.528097,0.010304,0.152764,-60.972328,3.531887,6.441147,,,,,,
1478478746.66,-1.555267,-0.593469,-2.518201,0.643108,-3.348860,1.519080,-0.828906,0.559240,-0.012873,0.363177,-0.234549,-0.124288,-60.310478,5.271517,10.317218,,,,,,
1478478746.67,-1.582619,-0.607584,-2.507103,0.922511,-3.127521,1.282671,-0.820972,0.570886,0.009707,0.149509,-0.382943,-0.304369,-60.310478,5.271517,10.317218,,,,,,
1478478746.68,-1.605382,-0.619490,-2.494554,1.018655,-2.755195,1.048427,-0.813688,0.580620,0.028153,0.115628,-0.273552,-0.279588,-59.267868,7.285051,14.346958,,,,,,
1478478746.69,-1.622937,-0.628913,-2.481830,1.020019,-2.242210,0.784685,-0.807568,0.588266,0.042145,0.138226,-0.153421,-0.138596,-59.267868,7.285051,14.346958,,,,,,
1478478746.70,-1.634633,-0.636528,-2.467675,1.176536,-1.828266,0.643821,-0.802526,0.594407,0.051301,0.082800,-0.141618,-0.006333,-58.228378,8.837004,17.405485,,,,,,
1478478746.71,-1.643439,-0.645626,-2.450813,1.386409,-1.821290,0.845418,-0.796617,0.601699,0.057971,-0.021209,-0.077331,0.102704,-58.228378,8.837004,17.405485,,,,,,
1478478746.73,-1.652635,-0.658403,-2.432212,1.556085,-1.961590,1.177699,-0.788323,0.611855,0.064659,-0.168006,0.027687,0.080147,-57.367199,10.188728,19.410873,,,,,,
1478478746.74,-1.655130,-0.674288,-2.409483,1.893942,-1.433565,1.421407,-0.778375,0.624342,0.065799,-0.161963,0.108996,-0.114841,-57.367199,10.188728,19.410873,,,,,,
1478478746.75,-1.656049,-0.691356,-2.386368,1.753791,-1.573356,1.473254,-0.767585,0.637582,0.065597,-0.109811,0.198828,-0.135055,-56.323025,12.373192,21.123659,,,,,,
1478478746.76,-1.668819,-0.707995,-2.369590,1.247730,-2.466752,1.467538,-0.756020,0.650312,0.074345,-0.113013,0.259569,-0.030385,-55.789154,13.655329,21.741434,,,,,,
1478478746.77,-1.688766,-0.724449,-2.356923,1.046268,-2.681706,1.443729,-0.743660,0.662723,0.088138,-0.162865,0.208279,-0.141498,-55.789154,13.655329,21.741434,,,,,,
1478478746.78,-1.705016,-0.740601,-2.345393,0.973108,-2.136579,1.419980,-0.731425,0.674731,0.098765,-0.287068,0.175595,-0.110240,-54.143505,15.929638,24.213945,,,,,,
1478478746.79,-1.720617,-0.756915,-2.337030,0.742597,-2.061734,1.471805,-0.718815,0.686682,0.108506,-0.263485,0.172296,-0.003663,-54.143505,15.929638,24.213945,,,,,,
1478478746.80,-1.739799,-0.774871,-2.330470,0.722213,-2.293673,1.683924,-0.704332,0.699624,0.120181,-0.189421,0.164039,0.003293,-52.486549,18.018286,26.307629,,,,,,
1478478746.81,-1.759901,-0.797602,-2.324702,0.782392,-2.310240,2.222259,-0.685974,0.715683,0.131290,-0.119369,0.108719,-0.102374,-52.486549,18.018286,26.307629,,,,,,
1478478746.82,-1.784396,-0.826619,-2.319936,0.873263,-2.792580,2.729653,-0.661973,0.735646,0.143588,-0.150191,0.009334,-0.214632,-50.430511,20.431978,28.476051,,,,,,
1478478746.83,-1.809660,-0.854002,-2.311226,1.217361,-3.059441,2.214203,-0.638318,0.753916,0.155438,-0.178866,-0.002756,-0.280271,-50.430511,20.431978,28.476051,,,,,,
1478478746.84,-1.828851,-0.874124,-2.294205,1.591953,-2.965047,1.411011,-0.620422,0.766982,0.163754,-0.045715,-0.040724,-0.269574,-47.484402,23.658510,30.936939,,,,,,
1478478746.85,-1.842692,-0.888975,-2.275696,1.337615,-2.695763,0.974761,-0.607056,0.776426,0.169247,-0.011047,-0.028273,-0.429425,-47.484402,23.658510,30.936939,,,,,,
1478478746.86,-1.858473,-0.898538,-2.265957,0.609707,-1.863957,0.658316,-0.597163,0.782417,0.176691,-0.217474,0.131447,-0.360926,-44.863644,25.944427,32.950382,,,,,,
1478478746.87,-1.859630,-0.907068,-2.264502,0.302683,0.266050,0.821519,-0.590538,0.787701,0.175474,-0.193275,0.198810,-0.201262,-44.863644,25.944427,32.950382,,,,,,
1478478746.88,-1.851277,-0.921560,-2.261503,0.641060,0.510019,1.458814,-0.580953,0.796546,0.167358,0.244466,0.096429,0.285401,-43.597008,27.018881,33.776745,,,,,,
1478478746.89,-1.845277,-0.943004,-2.256860,0.850864,0.148219,1.981834,-0.565372,0.809326,0.159202,0.415851,0.038956,0.737862,-43.597008,27.018881,33.776745,,,,,,
1478478746.90,-1.838239,-0.964871,-2.250926,0.861068,0.261788,1.867231,-0.549276,0.821975,0.150506,0.541067,-0.212814,0.233955,-42.942352,28.938562,33.016682,,,,,,
1478478746.91,-1.828945,-0.985262,-2.246469,0.668125,0.639443,1.820050,-0.534332,0.833417,0.141085,0.601471,-0.314145,-0.059466,-42.942352,28.938562,33.016682,,,,,,
1478478746.93,-1.820328,-1.006213,-2.249231,0.260539,1.178283,2.008661,-0.518492,0.844812,0.132134,0.463698,-0.242212,0.020378,-42.018150,31.153358,32.179665,,,,,,
1478478746.94,-1.811312,-1.027291,-2.258382,-0.022255,1.728857,2.068872,-0.502254,0.855901,0.123185,0.124141,-0.197378,0.011108,-41.713135,32.139622,31.601368,,,,,,
1478478746.95,-1.802319,-1.048868,-2.271669,-0.170981,1.986758,2.175205,-0.485251,0.866859,0.114398,0.020682,-0.288963,0.013273,-41.713135,32.139622,31.601368,,,,,,
1478478746.96,-1.795952,-1.071435,-2.287944,-0.272598,1.924586,2.288847,-0.466778,0.877889,0.106911,-0.017841,-0.365041,-0.007545,-41.400913,33.942436,30.090916,,,,,,
1478478746.97,-1.794075,-1.094620,-2.306044,-0.292327,1.597591,2.335782,-0.447005,0.888754,0.101499,-0.071870,-0.309119,-0.088315,-41.400913,33.942436,30.090916,,,,,,
1478478746.98,-1.797006,-1.119708,-2.323890,-0.176628,1.131030,2.604110,-0.424839,0.899973,0.097776,-0.024807,-0.349711,-0.163603,-40.847851,35.760487,28.709379,,,,,,
1478478746.99,-1.800116,-1.150280,-2.338540,0.188331,0.921757,3.042170,-0.397545,0.912878,0.092797,0.086937,-0.505606,-0.063256,-40.847851,35.760487,28.709379,,,,,,
1478478747.00,-1.797195,-1.180791,-2.345669,0.421770,0.917720,2.808903,-0.370491,0.924907,0.085342,0.201011,-0.551509,0.052552,-39.386913,38.028717,27.822205,,,,,,
1478478747.01,-1.796453,-1.208880,-2.356736,0.129118,1.132398,2.660012,-0.345091,0.935220,0.079221,0.230085,-0.412927,0.162600,-39.386913,38.028717,27.822205,,,,,,
1478478747.02,-1.802988,-1.234168,-2.379348,-0.258228,1.473204,2.445076,-0.321443,0.943874,0.076007,0.392976,-0.240123,0.180233,-37.643654,40.464783,26.779554,,,,,,
1478478747.03,-1.818967,-1.256573,-2.416669,-0.721552,1.985981,2.313217,-0.299609,0.951037,0.075919,-0.087476,-0.467653,-0.124717,-37.643654,40.464783,26.779554,,,,,,
1478478747.04,-1.850257,-1.277004,-2.477302,-1.310477,2.721676,2.346260,-0.278350,0.957152,0.079878,-0.395829,-0.481918,-0.139311,-36.432236,42.140530,25.854511,,,,,,
1478478747.05,-1.895165,-1.295411,-2.556169,-1.500262,2.884483,2.262279,-0.257738,0.962320,0.086663,-0.129560,-0.407175,0.173423,-36.432236,42.140530,25.854511,,,,,,
1478478747.06,-1.938751,-1.316229,-2.620328,-0.512281,1.215366,2.482553,-0.234971,0.967772,0.090584,0.066789,-0.328063,0.247093,-35.814442,43.187611,24.974857,,,,,,
1478478747.07,-1.969415,-1.339043,-2.649727,0.321719,-0.547411,2.117167,-0.211677,0.973265,0.089151,0.263770,0.095399,0.131140,-35.814442,43.187611,24.974857,,,,,,
1478478747.08,-2.000290,-1.354333,-2.679002,-0.113620,0.005070,1.406157,-0.195270,0.976663,0.089435,-0.014447,0.145987,-0.061283,-34.062576,44.740093,24.691141,,,,,,
1478478747.09,-2.012154,-1.361883,-2.688416,0.299800,-0.438571,0.494868,-0.187522,0.978257,0.088593,0.259498,0.076247,-0.464951,-33.256905,45.304142,24.760864,,,,,,
1478478747.10,-1.997879,-1.364126,-2.661264,0.615012,-1.436895,-0.116579,-0.186770,0.978720,0.084998,-0.005796,0.257151,-0.000968,-33.256905,45.304142,24.760864,,,,,,
1478478747.11,-1.990714,-1.367091,-2.633469,0.592680,-2.010328,0.114766,-0.184724,0.979324,0.082474,-0.369262,0.216675,0.293731,-32.550961,45.731556,24.912792,,,,,,
1478478747.12,-2.001445,-1.371909,-2.620328,0.326300,-2.274880,0.352092,-0.179539,0.980287,0.082481,-0.413417,0.235976,-0.369713,-32.550961,45.731556,24.912792,,,,,,
1478478747.14,-2.028662,-1.371228,-2.630979,-0.400751,-1.279712,-0.124085,-0.177826,0.980152,0.087631,0.058670,0.380718,-0.486664,-31.275749,46.120285,25.813444,,,,,,
1478478747.15,-2.057977,-1.365770,-2.654794,-0.676558,-0.401502,-0.195629,-0.179906,0.979056,0.095309,0.417455,0.409372,-0.061114,-31.275749,46.120285,25.813444,,,,,,
1478478747.16,-2.090344,-1.360605,-2.686096,-0.805227,-0.134335,-0.146806,-0.181115,0.977991,0.103591,0.188897,0.276953,0.180391,-30.787516,45.809380,26.929848,,,,,,
1478478747.17,-2.110506,-1.355464,-2.707204,-0.540870,0.095500,-0.229042,-0.183301,0.976905,0.109803,-0.179553,0.816277,0.227919,-30.787516,45.809380,26.929848,,,,,,
1478478747.18,-2.125877,-1.349185,-2.723783,-0.657286,0.098492,-0.373042,-0.186800,0.975545,0.115838,-0.319792,0.876140,0.117881,-30.917030,45.300308,27.633442,,,,,,
1478478747.19,-2.140663,-1.342168,-2.740987,-0.611566,0.217124,-0.330232,-0.190826,0.973978,0.122277,-0.241196,0.695104,0.043708,-30.917030,45.300308,27.633442,,,,,,
1478478747.20,-2.140570,-1.341613,-2.743409,0.156972,0.219239,0.112539,-0.191292,0.973852,0.122551,-0.196479,1.113062,0.003440,-31.327244,44.698944,28.145977,,,,,,
1478478747.21,-2.130041,-1.349794,-2.731064,0.735867,-0.308562,0.640010,-0.185813,0.975678,0.116300,-0.247750,0.186019,0.201052,-31.327244,44.698944,28.145977,,,,,,
1478478747.22,-2.122069,-1.361435,-2.717612,0.813389,-0.476533,0.815668,-0.177046,0.978164,0.108858,-0.122041,-0.090499,0.106718,-31.117884,45.029671,27.849482,,,,,,
1478478747.23,-2.116994,-1.373533,-2.709862,0.682465,-0.228608,0.944503,-0.167472,0.980607,0.101804,0.048270,-0.620148,-0.125623,-31.117884,45.029671,27.849482,,,,,,
1478478747.24,-2.125852,-1.383327,-2.713840,0.317425,-0.538257,0.742095,-0.158393,0.982479,0.098217,0.127296,-0.575405,-0.141598,-30.090885,46.024643,27.347002,,,,,,
1478478747.25,-2.145846,-1.385537,-2.731970,-0.354941,-0.011009,0.213283,-0.154576,0.982888,0.100183,0.123478,-0.575814,-0.143564,-30.090885,46.024643,27.347002,,,,,,
1478478747.26,-2.181897,-1.378620,-2.771657,-1.117118,0.259143,-0.248709,-0.156428,0.981591,0.109587,-0.094395,-0.292351,0.108110,-29.321676,46.470333,27.428726,,,,,,
1478478747.27,-2.222788,-1.369037,-2.813500,-1.115557,-0.053726,-0.248311,-0.159288,0.979716,0.121593,-0.093795,-0.096796,0.093007,-29.321676,46.470333,27.428726,,,,,,
1478478747.28,-2.245948,-1.362892,-2.836318,-0.551741,-0.092949,-0.180640,-0.161126,0.978466,0.129010,-0.068961,0.050282,0.084354,-29.612658,45.716713,28.366535,,,,,,
1478478747.29,-2.248927,-1.360628,-2.837505,-0.036580,-0.202762,-0.135782,-0.162466,0.977996,0.130878,0.157659,0.063340,0.010845,-29.612658,45.716713,28.366535,,,,,,
1478478747.30,-2.241834,-1.359430,-2.827362,0.083919,-0.276313,-0.272617,-0.164307,0.977745,0.130451,0.054276,0.035484,-0.080112,-29.700424,45.351330,28.857050,,,,,,
1478478747.31,-2.230088,-1.355966,-2.813089,0.014554,-0.174916,-0.466657,-0.168504,0.977013,0.130586,0.073259,-0.011879,-0.096956,-29.721331,45.310413,28.899771,,,,,,
1478478747.32,-2.212740,-1.353160,-2.794388,0.192993,-0.066560,-0.430342,-0.172940,0.976410,0.129284,0.077694,-0.011277,-0.095654,-29.721331,45.310413,28.899771,,,,,,
1478478747.34,-2.190712,-1.353694,-2.772874,0.461554,0.174566,-0.090808,-0.175321,0.976526,0.125141,0.153043,0.013678,-0.007160,-30.049093,45.084061,28.914824,,,,,,
1478478747.35,-2.174982,-1.363487,-2.761548,0.795454,0.539387,0.875526,-0.169389,0.978588,0.116929,0.150453,0.000248,0.040038,-30.049093,45.084061,28.914824,,,,,,
1478478747.36,-2.164144,-1.377909,-2.758887,0.785428,0.839286,1.086174,-0.158928,0.981455,0.107183,0.177056,-0.137522,-0.018667,-30.013744,45.547325,28.217079,,,,,,
1478478747.37,-2.167827,-1.387516,-2.768511,0.176976,0.332458,0.775653,-0.150727,0.983251,0.102462,0.164369,-0.327703,0.074845,-30.013744,45.547325,28.217079,,,,,,
1478478747.38,-2.222139,-1.387981,-2.816852,-0.948953,-0.926596,0.428660,-0.144579,0.983336,0.110217,0.186343,-0.818846,0.139341,-29.453890,46.505081,27.227434,,,,,,
1478478747.39,-2.312848,-1.379392,-2.890438,-1.630356,-2.022840,0.156470,-0.140221,0.981738,0.128563,0.235070,-0.836902,0.086677,-29.453890,46.505081,27.227434,,,,,,
1478478747.40,-2.393935,-1.371809,-2.948021,-1.023853,-2.296561,0.345229,-0.134405,0.980267,0.144953,0.097204,-0.332181,-0.104548,-28.386837,46.086552,29.013870,,,,,,
1478478747.41,-2.452361,-1.379838,-2.990427,0.440637,-1.372397,1.341746,-0.120702,0.981823,0.146475,-0.098337,-0.385982,-0.438056,-28.386837,46.086552,29.013870,,,,,,
1478478747.42,-2.498947,-1.401492,-3.028252,1.419863,-0.775741,1.822901,-0.100983,0.985702,0.134884,0.098587,-0.521148,-0.401287,-26.502190,46.092304,30.736315,,,,,,
1478478747.43,-2.515118,-1.425857,-3.038332,1.866656,-0.516870,1.362608,-0.084679,0.989515,0.117004,0.180291,-0.647092,-0.248855,-26.502190,46.092304,30.736315,,,,,,
1478478747.44,-2.484084,-1.447748,-3.005020,1.920088,-0.081061,0.757513,-0.075011,0.992439,0.097150,0.121840,-0.423729,0.211841,-24.413303,47.921482,29.649788,,,,,,
1478478747.45,-2.421338,-1.466294,-2.943167,1.712623,0.210886,0.598736,-0.068802,0.994545,0.078405,0.104278,-0.228248,0.259348,-24.413303,47.921482,29.649788,,,,,,
1478478747.46,-2.393344,-1.480839,-2.920691,0.955235,0.610829,0.876626,-0.061121,0.995957,0.065839,-0.044455,-0.433289,-0.031278,-23.618362,49.422844,27.769468,,,,,,
1478478747.47,-2.455979,-1.493904,-2.988324,0.528566,0.358468,1.312570,-0.048636,0.997045,0.059458,-0.035974,0.025400,-0.057795,-23.368731,49.949593,27.028284,,,,,,
1478478747.48,-2.659989,-1.506769,3.088770,0.084496,0.111138,2.017998,-0.029637,0.997951,0.056706,-0.013377,0.597355,0.092357,-23.368731,49.949593,27.028284,,,,,,
1478478747.49,-3.016601,-1.513434,2.731318,0.049129,-0.016028,2.114070,-0.007147,0.998355,0.056883,-0.035867,0.596951,0.092180,-23.368731,49.949593,27.028284,,,,,,
1478478747.50,2.912248,-1.513945,2.377593,0.145093,-0.189918,1.833854,0.012918,0.998384,0.055333,0.031730,0.808806,0.013713,-20.777269,51.387318,26.443077,,,,,,
1478478747.51,2.664628,-1.508457,2.137300,-0.085967,-0.975655,1.285746,0.028600,0.998058,0.055346,-0.098089,0.797078,0.016447,-19.712345,51.833786,26.386929,,,,,,
1478478747.52,2.555689,-1.503418,2.046010,-0.111309,-1.903473,0.576208,0.037229,0.997731,0.056098,-0.106717,0.797405,0.015694,-19.712345,51.833786,26.386929,,,,,,
1478478747.53,2.477975,-1.501018,1.989052,0.072963,-1.909578,0.406041,0.042946,0.997567,0.054924,-0.203805,0.578682,-0.021859,-17.836723,52.226681,26.940916,,,,,,
1478478747.55,2.418439,-1.500401,1.943429,0.173033,-1.124665,0.228665,0.046546,0.997523,0.052734,-0.156028,0.059804,-0.182265,-17.836723,52.226681,26.940916,,,,,,
1478478747.56,2.377656,-1.502054,1.908740,0.315538,-0.432857,-0.022568,0.047516,0.997638,0.049601,-0.081681,-0.018970,-0.257471,-16.498390,52.406158,27.440578,,,,,,
1478478747.57,2.343378,-1.506013,1.875935,0.428072,-0.040437,-0.135495,0.046360,0.997902,0.045187,-0.062458,0.344169,-0.146108,-16.498390,52.406158,27.440578,,,,,,
1478478747.58,2.319109,-1.510114,1.850030,0.369433,0.154835,-0.162941,0.044443,0.998159,0.041263,-0.095957,0.761988,0.066983,-16.317184,52.593678,27.189003,,,,,,
1478478747.59,2.280352,-1.513580,1.809867,0.393513,0.155621,-0.092698,0.043383,0.998364,0.037256,-0.168918,0.963901,0.168753,-16.317184,52.593678,27.189003,,,,,,
1478478747.60,2.275179,-1.519396,1.801737,0.382520,0.326698,-0.587553,0.039150,0.998679,0.033270,-0.182018,0.562432,0.091776,-16.546591,52.764351,26.715567,,,,,,
1478478747.61,2.339219,-1.525972,1.859958,0.151599,0.584707,-0.552316,0.032218,0.998996,0.031143,-0.103813,0.152570,0.081894,-16.546591,52.764351,26.715567,,,,,,
1478478747.62,2.368082,-1.528469,1.884478,0.129032,0.343535,-0.127897,0.029563,0.999104,0.030275,0.046624,-0.100499,0.045790,-17.354471,52.750862,26.225107,,,,,,
1478478747.63,2.297530,-1.529103,1.811705,0.282268,0.206765,0.213898,0.031150,0.999131,0.027694,0.130745,-0.587998,-0.003387,-17.354471,52.750862,26.225107,,,,,,
1478478747.64,2.191688,-1.529317,1.702775,0.374938,0.301000,0.250438,0.033728,0.999140,0.024124,0.191141,-0.826120,-0.047546,-17.570724,52.830929,25.918146,,,,,,
1478478747.65,2.087552,-1.529415,1.596670,0.327230,0.121813,0.201263,0.035968,0.999144,0.020439,0.147992,-0.161360,-0.111397,-17.570724,52.830929,25.918146,,,,,,
1478478747.66,2.007719,-1.529388,1.518750,0.268097,-0.334253,0.128389,0.037508,0.999143,0.017517,-0.008638,0.038974,-0.065567,-17.434250,53.108044,25.439547,,,,,,
1478478747.67,1.911987,-1.529116,1.432047,0.323734,-1.035420,0.165557,0.039266,0.999132,0.013942,-0.092702,0.075560,0.036778,-17.304049,53.206535,25.322359,,,,,,
1478478747.68,1.776985,-1.528039,1.314024,0.456318,-1.857758,0.254940,0.041839,0.999086,0.008751,-0.135955,-0.098039,0.010353,-17.304049,53.206535,25.322359,,,,,,
1478478747.69,1.646229,-1.523858,1.207979,0.368619,-2.459245,0.539779,0.046787,0.998899,0.003536,-0.095005,-0.058057,-0.010662,-16.427607,53.469799,25.351561,,,,,,
1478478747.70,1.542168,-1.515643,1.132544,0.354727,-2.835544,0.863582,0.055103,0.998479,-0.001578,-0.054065,-0.228963,-0.073022,-16.427607,53.469799,25.351561,,,,,,
1478478747.71,1.430770,-1.504734,1.050729,0.644311,-2.707834,1.029952,0.065368,0.997819,-0.009214,-0.038330,-0.284470,-0.080371,-14.356389,53.869102,25.760458,,,,,,
1478478747.72,1.328239,-1.492443,0.967131,0.786429,-1.519734,1.024212,0.075982,0.996932,-0.018800,-0.024728,-0.365279,-0.048964,-14.356389,53.869102,25.760458,,,,,,
1478478747.73,1.262585,-1.482744,0.912713,0.637383,-1.003522,0.710413,0.083794,0.996126,-0.026676,-0.007867,-0.272768,0.002903,-11.938956,54.511929,25.641731,,,,,,
1478478747.75,1.235507,-1.472084,0.889996,0.461458,-0.231329,0.962205,0.093065,0.995132,-0.032428,0.000014,-0.430267,-0.013150,-11.938956,54.511929,25.641731,,,,,,
1478478747.76,1.227787,-1.459561,0.882200,0.496148,0.007336,1.134059,0.104540,0.993820,-0.037334,-0.059175,-0.609542,0.146587,-10.573664,55.022766,25.145191,,,,,,
1478478747.77,1.211617,-1.445378,0.867557,0.663424,-0.179198,1.229154,0.117107,0.992145,-0.043970,-0.161815,-0.381855,0.127802,-10.573664,55.022766,25.145191,,,,,,
1478478747.78,1.184092,-1.431885,0.841623,0.820538,-0.118497,1.036618,0.128240,0.990367,-0.052220,-0.243337,0.365132,0.029454,-9.193079,55.546829,24.528038,,,,,,
1478478747.79,1.137443,-1.419103,0.791042,1.226500,0.486344,0.728108,0.137144,0.988517,-0.063455,-0.200514,0.493356,0.145928,-9.193079,55.546829,24.528038,,,,,,
1478478747.80,1.078393,-1.406769,0.717813,1.634885,1.525110,0.438064,0.143893,0.986578,-0.077196,0.134488,0.030497,0.086641,-8.106246,56.197567,23.403202,,,,,,
1478478747.81,1.038487,-1.392949,0.656490,1.383939,1.951824,0.835647,0.152434,0.984227,-0.089787,0.125948,0.032848,0.099232,-8.106246,56.197567,23.403202,,,,,,
1478478747.82,1.058590,-1.376167,0.664157,0.459473,0.913470,1.585512,0.168583,0.981119,-0.094787,0.058468,-0.229319,0.210327,-8.106246,56.197567,23.403202,,,,,,
1478478747.83,1.090993,-1.361774,0.690045,0.184471,0.696398,1.321519,0.184074,0.978234,-0.095785,-0.007575,-0.010690,0.251333,-7.526731,57.280281,20.830391,,,,,,
1478478747.84,1.114772,-1.351378,0.705405,0.182683,0.846544,0.968193,0.195419,0.976024,-0.095855,0.079895,0.583058,0.093276,-7.526731,57.280281,20.830391,,,,,,
1478478747.85,1.128361,-1.342665,0.712344,0.231787,0.557872,0.773863,0.204381,0.974091,-0.096827,-0.052129,1.556183,-0.034459,-6.367331,57.543392,20.489086,,,,,,
1478478747.86,1.136699,-1.334640,0.717883,0.199607,0.198198,0.727959,0.212267,0.972244,-0.098405,-0.452761,0.470169,-0.096221,-6.367331,57.543392,20.489086,,,,,,
1478478747.87,1.146709,-1.327349,0.727529,0.044448,0.034061,0.723584,0.219696,0.970513,-0.099189,-0.173691,-0.124459,-0.136971,-5.625217,57.736019,20.161758,,,,,,
1478478747.88,1.163577,-1.320434,0.745429,-0.165310,-0.088969,0.791314,0.227495,0.968823,-0.098125,0.167418,-0.197735,-0.118107,-5.625217,57.736019,20.161758,,,,,,
1478478747.89,1.181356,-1.313114,0.766656,-0.189649,-0.324518,0.842770,0.235758,0.966983,-0.096755,0.265127,-0.323413,-0.127030,-4.722421,57.811966,20.175798,,,,,,
1478478747.90,1.193188,-1.306626,0.782054,-0.097178,-0.237133,0.666021,0.242713,0.965309,-0.096270,0.172860,-0.141945,-0.104673,-4.722421,57.811966,20.175798,,,,,,
1478478747.91,1.198925,-1.301329,0.789171,0.055429,-0.094962,0.487988,0.248022,0.963913,-0.096733,0.072489,0.019867,-0.084221,-3.661037,57.812820,20.392693,,,,,,
1478478747.92,1.199179,-1.297788,0.791480,0.073988,-0.219284,0.286763,0.251225,0.962964,-0.097909,-0.029896,0.232867,-0.095802,-3.661037,57.812820,20.392693,,,,,,
1478478747.93,1.193173,-1.295109,0.787830,0.211739,-0.242199,0.170173,0.253030,0.962238,-0.100367,-0.133386,0.300045,-0.047339,-3.069292,57.862030,20.350727,,,,,,
1478478747.94,1.184686,-1.293287,0.781498,0.215261,-0.224145,0.085294,0.253792,0.961741,-0.103170,-0.122124,0.251775,0.054708,-3.069292,57.862030,20.350727,,,,,,
1478478747.96,1.176647,-1.292043,0.775147,0.199316,-0.144614,0.028530,0.254059,0.961399,-0.105667,-0.056641,0.142208,0.055831,-2.786366,57.956036,20.122669,,,,,,
1478478747.97,1.167328,-1.290988,0.766772,0.248622,-0.152752,0.002398,0.253996,0.961108,-0.108428,0.077058,0.105710,0.063643,-2.719356,57.999229,20.007050,,,,,,
1478478747.98,1.157211,-1.290001,0.758877,0.210478,-0.265499,0.000070,0.253754,0.960835,-0.111373,0.011138,-0.019246,-0.002992,-2.689641,58.050022,19.863243,,,,,,
1478478747.99,1.101807,-1.268685,0.708798,0.143264,-0.380640,-0.032056,0.265411,0.954710,-0.134482,0.014085,-0.032454,-0.029336,-2.689641,58.050022,19.863243,,,,,,
1478478748.00,1.094030,-1.269182,0.705518,0.031334,-0.445014,-0.103720,0.263935,0.954858,-0.136324,0.015560,-0.032602,-0.027494,-2.689641,58.050022,19.863243,,,,,,
1478478748.01,1.088545,-1.271019,0.703970,-0.054282,-0.349472,-0.202232,0.261629,0.955402,-0.136956,0.046797,0.012982,-0.025382,-1.696273,58.558769,18.427719,,,,,,
1478478748.02,1.081550,-1.273673,0.699716,0.013164,-0.277753,-0.299359,0.258425,0.956183,-0.137591,0.012907,0.146188,-0.032148,-1.696273,58.558769,18.427719,,,,,,
1478478748.03,1.068310,-1.274748,0.691625,0.207434,-0.644176,-0.117439,0.255680,0.956497,-0.140505,-0.026523,0.225312,0.009310,-1.847690,58.539780,18.473434,,,,,,
1478478748.04,1.054525,-1.271530,0.681416,0.420278,-0.120631,0.128219,0.256394,0.955553,-0.145535,-0.062867,0.225202,0.031262,-1.847690,58.539780,18.473434,,,,,,
1478478748.05,1.053467,-1.269811,0.675144,0.134845,0.558776,0.014513,0.257667,0.955045,-0.146618,-0.037971,0.105029,0.041302,-1.714890,58.643700,18.153870,,,,,,
1478478748.06,1.061210,-1.271022,0.676555,-0.139353,0.555464,-0.081374,0.257785,0.955403,-0.144054,0.101453,-0.012425,0.050960,-1.714890,58.643700,18.153870,,,,,,
1478478748.07,1.067305,-1.271994,0.679942,-0.104235,0.171783,-0.019199,0.257845,0.955690,-0.142032,0.046064,-0.148072,0.128818,-1.935277,58.670353,18.045277,,,,,,
1478478748.08,1.066445,-1.272032,0.680256,0.015127,-0.173972,0.005531,0.257691,0.955701,-0.142237,-0.407913,-0.042020,0.164453,-1.935277,58.670353,18.045277,,,,,,
1478478748.09,1.062806,-1.271703,0.679422,0.036483,-0.298871,0.020212,0.257446,0.955604,-0.143326,-0.208267,0.026589,-0.007156,-1.986692,58.643543,18.126644,,,,,,
1478478748.10,1.058713,-1.271349,0.679273,0.013409,-0.400480,0.027726,0.257153,0.955500,-0.144545,-0.043743,-0.063089,-0.131609,-1.986692,58.643543,18.126644,,,,,,
1478478748.11,1.055384,-1.271075,0.680777,-0.035237,-0.466475,0.046535,0.256897,0.955419,-0.145529,-0.035858,-0.077825,-0.068537,-1.836899,58.655025,18.105278,,,,,,
1478478748.12,1.051243,-1.270915,0.681898,-0.010911,-0.505702,0.023019,0.256426,0.955371,-0.146668,-0.045488,-0.018283,0.029114,-1.723794,58.651272,18.128557,,,,,,
1478478748.13,1.046430,-1.270530,0.682671,-0.001728,-0.539293,0.053153,0.256035,0.955258,-0.148084,-0.065071,0.107593,-0.025851,-1.611436,58.647995,18.149473,,,,,,
1478478748.14,1.041477,-1.269795,0.683859,0.011389,-0.588939,0.083615,0.255904,0.955040,-0.149705,-0.073943,0.111534,-0.020950,-1.611436,58.647995,18.149473,,,,,,
1478478748.16,1.036201,-1.268753,0.684632,0.041444,-0.557965,0.098244,0.255967,0.954731,-0.151560,-0.074006,0.111843,-0.019094,-1.611436,58.647995,18.149473,,,,,,
1478478748.17,1.031600,-1.267612,0.685283,0.026827,-0.477688,0.100357,0.256201,0.954391,-0.153295,-0.046301,-0.059142,-0.013819,-1.157531,58.658173,18.151217,,,,,,
1478478748.18,1.030019,-1.266868,0.688561,-0.063172,-0.441239,0.113159,0.256567,0.954168,-0.154065,-0.019949,-0.098638,-0.037066,-1.157531,58.658173,18.151217,,,,,,
1478478748.19,1.030177,-1.266355,0.693146,-0.091494,-0.383223,0.105639,0.257011,0.954015,-0.154276,-0.002205,-0.121343,-0.040578,-0.847032,58.659641,18.163609,,,,,,
1478478748.20,1.031245,-1.266484,0.698016,-0.137504,-0.332275,0.044018,0.257070,0.954053,-0.153939,0.007533,-0.099699,-0.029335,-0.847032,58.659641,18.163609,,,,,,
1478478748.21,1.031840,-1.266506,0.702628,-0.087842,-0.370667,0.085856,0.257144,0.954060,-0.153775,0.009244,0.057811,-0.049564,-0.600216,58.620255,18.300079,,,,,,
1478478748.22,1.029097,-1.265643,0.703865,0.037148,-0.363714,0.083864,0.257427,0.953801,-0.154904,-0.008739,0.081020,-0.076739,-0.600216,58.620255,18.300079,,,,,,
1478478748.23,1.025590,-1.264972,0.703812,0.024086,-0.321416,0.044941,0.257429,0.953599,-0.156138,-0.005628,0.018309,-0.055013,-0.363309,58.601398,18.366598,,,,,,
1478478748.24,1.022634,-1.264727,0.704453,-0.008565,-0.344963,0.027697,0.257166,0.953525,-0.157020,0.011343,0.000317,-0.063500,-0.363309,58.601398,18.366598,,,,,,
1478478748.25,1.019843,-1.264610,0.705425,-0.023640,-0.354905,0.022742,0.256821,0.953490,-0.157796,-0.005952,0.011033,-0.044261,-0.183074,58.607571,18.349564,,,,,,
1478478748.26,1.017612,-1.264567,0.706624,-0.026615,-0.305439,0.020637,0.256504,0.953477,-0.158390,-0.040790,-0.001283,0.008960,-0.183074,58.607571,18.349564,,,,,,
1478478748.27,1.016565,-1.264542,0.708403,-0.042293,-0.246267,0.031676,0.256358,0.953470,-0.158671,-0.006556,0.013083,-0.016805,-0.024823,58.598923,18.378067,,,,,,
1478478748.28,1.015952,-1.264467,0.710148,-0.036302,-0.210363,0.031157,0.256322,0.953447,-0.158866,0.011333,0.005904,-0.032922,-0.024823,58.598923,18.378067,,,,,,
1478478748.29,1.015062,-1.264304,0.711507,-0.021184,-0.205358,0.034970,0.256312,0.953398,-0.159176,0.009740,0.006975,-0.028751,0.105340,58.583237,18.427721,,,,,,
1478478748.30,1.013849,-1.264071,0.712368,-0.004913,-0.189153,0.031251,0.256308,0.953327,-0.159604,0.023752,0.005398,-0.042789,0.166392,58.578354,18.442791,,,,,,
1478478748.31,1.012449,-1.263785,0.712903,0.000039,-0.177992,0.031134,0.256315,0.953241,-0.160107,0.028231,-0.003564,-0.041172,0.223543,58.576485,18.448118,,,,,,
1478478748.32,1.011135,-1.263542,0.713282,0.002343,-0.154416,0.023411,0.256300,0.953168,-0.160567,0.029207,-0.005841,-0.028658,0.223543,58.576485,18.448118,,,,,,
1478478748.33,1.009979,-1.263304,0.713582,0.004660,-0.130923,0.025501,0.256307,0.953096,-0.160983,0.029200,-0.005769,-0.028241,0.223543,58.576485,18.448118,,,,,,
1478478748.34,1.007793,-1.254354,0.712634,0.003151,-0.104888,0.016461,0.263157,0.950349,-0.166090,0.016963,0.000488,-0.010882,0.365718,58.577995,18.441051,,,,,,
1478478748.35,1.007186,-1.254201,0.712952,-0.002113,-0.081430,0.017215,0.263180,0.950301,-0.166327,0.013081,0.006440,0.000800,0.365718,58.577995,18.441051,,,,,,
1478478748.37,1.006871,-1.254108,0.713356,-0.003571,-0.060381,0.013160,0.263202,0.950272,-0.166457,0.009900,0.008499,0.006362,0.851301,58.665138,18.145653,,,,,,
1478478748.38,1.006719,-1.254033,0.713755,-0.008727,-0.049259,0.010444,0.263236,0.950249,-0.166535,0.007165,0.010612,0.008378,0.851301,58.665138,18.145653,,,,,,
1478478748.39,1.006537,-1.254090,0.714163,-0.012477,-0.055361,-0.001771,0.263160,0.950266,-0.166554,-0.003868,0.013128,0.014408,0.889790,58.662682,18.151737,,,,,,
1478478748.40,1.006197,-1.254204,0.714478,-0.013665,-0.064005,-0.004095,0.263012,0.950302,-0.166585,-0.013394,0.019150,0.021429,0.889790,58.662682,18.151737,,,,,,
1478478748.41,1.005804,-1.254319,0.714718,-0.012437,-0.060277,-0.005367,0.262855,0.950338,-0.166631,-0.023643,0.020411,0.031468,0.910357,58.657589,18.167175,,,,,,
1478478748.42,1.005297,-1.254466,0.714816,-0.009963,-0.055263,-0.011548,0.262652,0.950383,-0.166689,-0.033343,0.027568,0.039156,0.910357,58.657589,18.167175,,,,,,
1478478748.43,1.004704,-1.254586,0.714817,-0.001117,-0.055242,-0.007741,0.262457,0.950421,-0.166783,-0.041342,0.033115,0.040166,0.922887,58.653584,18.179470,,,,,,
