timestamp(unix),attitude_roll(radians),attitude_pitch(radians),attitude_yaw(radians),rotation_rate_x(radians/s),rotation_rate_y(radians/s),rotation_rate_z(radians/s),gravity_x(G),gravity_y(G),gravity_z(G),user_acc_x(G),user_acc_y(G),user_acc_z(G),magnetic_field_x(microteslas),magnetic_field_y(microteslas),magnetic_field_z(microteslas),latitude(degree),longitude(degree),altitude(meter),speed(m/s),course(degree),timestamp(unix)
1478536461.20,-0.191648,0.536815,-0.271073,-0.245544,-0.168366,0.031110,-0.163685,-0.511401,-0.843609,0.007893,-0.031232,0.078488,14.600851,-23.809122,-33.685081,,,,,,
1478536461.21,-0.192121,0.534348,-0.271697,-0.230397,-0.035436,-0.029785,-0.164324,-0.509280,-0.844767,-0.021680,-0.029279,0.082804,14.418253,-23.690289,-33.847130,,,,,,
1478536461.22,-0.190278,0.532725,-0.273236,-0.154869,0.122754,-0.109858,-0.162923,-0.507883,-0.845879,-0.016948,-0.016531,0.071877,14.418253,-23.690289,-33.847130,,,,,,
1478536461.23,-0.188449,0.532105,-0.275039,-0.059660,0.066692,-0.139425,-0.161435,-0.507349,-0.846485,-0.019031,-0.004462,0.063495,14.452145,-23.527035,-33.946400,,,,,,
1478536461.24,-0.187914,0.532423,-0.276450,0.029862,-0.050539,-0.105493,-0.160952,-0.507622,-0.846413,-0.032423,-0.030265,0.045738,14.452145,-23.527035,-33.946400,,,,,,
1478536461.25,-0.189077,0.533230,-0.276698,0.083839,-0.140053,-0.011218,-0.161859,-0.508318,-0.845822,-0.029731,-0.001753,0.017453,14.539549,-23.460697,-33.954990,,,,,,
1478536461.26,-0.191034,0.534120,-0.276387,0.086745,-0.179760,0.006664,-0.163428,-0.509084,-0.845059,0.002081,0.037084,0.013928,14.539549,-23.460697,-33.954990,,,,,,
1478536461.27,-0.190876,0.528548,-0.277912,0.054276,-0.231295,-0.064069,-0.163830,-0.504280,-0.847857,-0.014729,0.007225,0.032626,14.440960,-23.513779,-33.960342,,,,,,
1478536461.28,-0.193004,0.528649,-0.279183,-0.040187,-0.268542,-0.113862,-0.165625,-0.504367,-0.847456,-0.034327,-0.023648,0.025374,14.425499,-23.315748,-34.103149,,,,,,
1478536461.29,-0.194881,0.527569,-0.280904,-0.155245,-0.256853,-0.115720,-0.167320,-0.503434,-0.847678,-0.032632,-0.024581,0.025596,14.425499,-23.315748,-34.103149,,,,,,
1478536461.30,-0.196216,0.525543,-0.282800,-0.237863,-0.200446,-0.117865,-0.168650,-0.501682,-0.848453,-0.035101,-0.010647,0.023196,14.425499,-23.315748,-34.103149,,,,,,
1478536461.31,-0.196117,0.522949,-0.285119,-0.288423,-0.060763,-0.146709,-0.168819,-0.499437,-0.849743,-0.021077,0.003206,0.013408,14.241619,-23.135933,-34.302315,,,,,,
1478536461.32,-0.194395,0.520238,-0.287664,-0.294663,0.069151,-0.158803,-0.167616,-0.497086,-0.851358,-0.023470,-0.009460,0.009485,14.241619,-23.135933,-34.302315,,,,,,
1478536461.33,-0.191957,0.517546,-0.290222,-0.287549,0.121109,-0.155898,-0.165795,-0.494749,-0.853074,-0.024604,-0.025606,0.026414,14.292158,-22.884634,-34.449551,,,,,,
1478536461.35,-0.189300,0.515151,-0.292537,-0.251182,0.152141,-0.143633,-0.163750,-0.492667,-0.854673,-0.030723,-0.027277,0.018278,14.370426,-22.755013,-34.502815,,,,,,
1478536461.36,-0.186153,0.512760,-0.294684,-0.265635,0.216225,-0.127753,-0.161277,-0.490584,-0.856339,-0.022744,-0.014451,0.002472,14.370426,-22.755013,-34.502815,,,,,,
1478536461.37,-0.182191,0.509785,-0.296801,-0.328262,0.298620,-0.117783,-0.158147,-0.487990,-0.858403,-0.022502,-0.013246,-0.002300,14.560955,-22.525326,-34.573578,,,,,,
1478536461.38,-0.177303,0.506041,-0.298790,-0.397354,0.399404,-0.093500,-0.154270,-0.484718,-0.860958,-0.027813,-0.018822,0.012402,14.560955,-22.525326,-34.573578,,,,,,
1478536461.39,-0.171187,0.501566,-0.300789,-0.464176,0.525156,-0.095361,-0.149370,-0.480800,-0.864014,-0.028960,-0.014104,0.033967,14.849648,-22.240211,-34.635315,,,,,,
1478536461.40,-0.162691,0.496377,-0.303367,-0.540763,0.747647,-0.137016,-0.142427,-0.476243,-0.867702,-0.029448,-0.017592,0.029247,14.849648,-22.240211,-34.635315,,,,,,
1478536461.41,-0.153270,0.490789,-0.306117,-0.562389,0.763650,-0.143731,-0.134650,-0.471322,-0.871622,-0.043909,-0.015113,0.032480,15.330957,-21.851585,-34.672955,,,,,,
1478536461.42,-0.145346,0.485592,-0.308677,-0.497577,0.580981,-0.139711,-0.128092,-0.466732,-0.875073,-0.059942,-0.033863,0.064526,15.330957,-21.851585,-34.672955,,,,,,
1478536461.43,-0.145276,0.481721,-0.309061,-0.302044,0.317073,-0.234228,-0.128291,-0.463305,-0.876863,-0.033071,-0.012982,-0.017347,15.909981,-21.410635,-34.687191,,,,,,
1478536461.44,-0.141278,0.481430,-0.314665,-0.025990,0.062709,-0.521524,-0.124803,-0.463047,-0.877503,0.011308,0.011738,-0.041580,15.909981,-21.410635,-34.687191,,,,,,
1478536461.45,-0.140546,0.483799,-0.321521,0.185765,-0.319783,-0.619939,-0.124007,-0.465145,-0.876506,-0.002382,0.111492,-0.043584,16.053638,-21.166910,-34.770485,,,,,,
1478536461.46,-0.143009,0.487659,-0.328815,0.295928,-0.636490,-0.673098,-0.125908,-0.468559,-0.874414,-0.035286,0.230949,-0.047614,16.053638,-21.166910,-34.770485,,,,,,
1478536461.47,-0.147126,0.489938,-0.336915,0.262280,-0.832971,-0.714419,-0.129351,-0.470571,-0.872829,0.026049,0.089086,-0.058994,16.044760,-21.106596,-34.811226,,,,,,
1478536461.48,-0.152350,0.492815,-0.345034,0.131182,-0.862265,-0.707232,-0.133702,-0.473108,-0.870800,0.016515,0.019906,-0.028797,16.044760,-21.106596,-34.811226,,,,,,
1478536461.49,-0.157490,0.493643,-0.352936,-0.083749,-0.833143,-0.648278,-0.138115,-0.473837,-0.869714,0.018654,-0.030908,0.019525,15.765739,-20.973982,-35.018246,,,,,,
1478536461.50,-0.161415,0.492028,-0.359836,-0.300293,-0.613111,-0.499359,-0.141650,-0.472415,-0.869919,0.013751,-0.111234,0.066407,15.600582,-20.855154,-35.162880,,,,,,
1478536461.51,-0.161869,0.486337,-0.363460,-0.692903,-0.025271,-0.099182,-0.142476,-0.467391,-0.872494,0.014577,-0.116258,0.068982,15.600582,-20.855154,-35.162880,,,,,,
1478536461.52,-0.155902,0.476349,-0.363538,-1.001421,0.747064,0.187487,-0.137986,-0.458538,-0.877897,-0.017501,-0.155339,0.108381,15.436159,-20.423927,-35.487068,,,,,,
1478536461.53,-0.143814,0.464944,-0.363296,-1.071896,1.274881,0.165295,-0.128105,-0.448373,-0.884619,-0.039131,-0.171134,0.132406,15.436159,-20.423927,-35.487068,,,,,,
1478536461.54,-0.129003,0.455185,-0.364044,-0.864463,1.366323,0.029383,-0.115547,-0.439629,-0.890716,-0.073067,-0.077125,0.135849,16.012524,-19.726389,-35.626011,,,,,,
1478536461.56,-0.117336,0.448734,-0.366089,-0.550943,0.887430,-0.145671,-0.105477,-0.433825,-0.894802,-0.090568,0.080752,0.068218,16.012524,-19.726389,-35.626011,,,,,,
1478536461.57,-0.110029,0.445589,-0.370190,-0.270438,0.427330,-0.376692,-0.099085,-0.430989,-0.896900,-0.118383,0.133474,-0.029781,16.918049,-19.136717,-35.528996,,,,,,
1478536461.58,-0.104430,0.444856,-0.377031,-0.095768,0.211780,-0.646484,-0.094095,-0.430328,-0.897755,-0.161978,0.098755,-0.096599,16.918049,-19.136717,-35.528996,,,,,,
1478536461.59,-0.098103,0.444927,-0.386954,-0.088379,0.196764,-0.912264,-0.088410,-0.430392,-0.898302,-0.167740,0.071215,-0.052732,17.386328,-18.800255,-35.482529,,,,,,
1478536461.60,-0.091370,0.444576,-0.399150,-0.143387,0.112417,-1.067395,-0.082373,-0.430075,-0.899027,-0.237329,0.016851,0.103755,17.386328,-18.800255,-35.482529,,,,,,
1478536461.61,-0.085639,0.443629,-0.411872,-0.202981,-0.004104,-1.077327,-0.077255,-0.429220,-0.899890,-0.267044,0.002294,0.160296,17.880880,-18.371174,-35.461502,,,,,,
1478536461.62,-0.081463,0.441653,-0.424408,-0.303945,-0.150845,-1.053005,-0.073565,-0.427435,-0.901048,-0.275923,0.029836,0.195131,17.880880,-18.371174,-35.461502,,,,,,
1478536461.63,-0.079982,0.439083,-0.436762,-0.320164,-0.451554,-1.040804,-0.072318,-0.425109,-0.902248,-0.252938,0.084686,0.230007,18.254616,-17.791632,-35.566429,,,,,,
1478536461.65,-0.090975,0.440916,-0.463395,0.227294,-1.377551,-1.266239,-0.082160,-0.426768,-0.900621,-0.108880,0.133372,0.062837,18.312454,-17.468357,-35.696705,,,,,,
1478536461.64,-0.083357,0.438238,-0.449454,-0.099588,-0.966627,-1.102512,-0.075392,-0.424344,-0.902357,-0.115648,0.130948,0.064573,18.312454,-17.468357,-35.696705,,,,,,
1478536461.66,-0.099951,0.446673,-0.479473,0.468452,-1.533850,-1.475975,-0.089995,-0.431967,-0.897388,-0.088198,0.172003,-0.084973,17.927271,-17.022177,-36.105434,,,,,,
1478536461.67,-0.108027,0.453750,-0.497616,0.495581,-1.486326,-1.665260,-0.096907,-0.438339,-0.893570,-0.081148,0.171310,-0.164672,17.927271,-17.022177,-36.105434,,,,,,
1478536461.68,-0.112065,0.459550,-0.518058,0.299026,-1.144768,-1.833302,-0.100228,-0.443545,-0.890630,-0.079994,0.135592,-0.182322,17.311686,-16.811012,-36.502594,,,,,,
1478536461.69,-0.111335,0.462525,-0.539634,-0.006440,-0.750804,-1.841909,-0.099431,-0.446209,-0.889388,-0.051890,0.095150,-0.134812,17.311686,-16.811012,-36.502594,,,,,,
1478536461.70,-0.109783,0.461479,-0.559558,-0.380396,-0.714160,-1.616127,-0.098102,-0.445273,-0.890005,-0.016309,0.045844,-0.037592,17.145651,-16.317469,-36.803680,,,,,,
1478536461.71,-0.110091,0.456804,-0.576951,-0.666331,-0.768763,-1.359325,-0.098603,-0.441082,-0.892033,0.043092,0.038205,0.042592,17.145651,-16.317469,-36.803680,,,,,,
1478536461.72,-0.111941,0.450252,-0.591283,-0.770760,-0.776707,-1.079840,-0.100574,-0.435193,-0.894702,0.135059,0.088055,0.062183,17.096291,-15.411977,-37.214672,,,,,,
1478536461.73,-0.115584,0.443363,-0.602492,-0.746040,-0.820828,-0.817504,-0.104176,-0.428980,-0.897287,0.192555,0.040079,0.051416,17.096291,-15.411977,-37.214672,,,,,,
1478536461.74,-0.121482,0.437488,-0.610838,-0.594386,-0.938077,-0.591347,-0.109770,-0.423666,-0.899143,0.225904,-0.009394,0.019947,16.792658,-14.452803,-37.734161,,,,,,
1478536461.75,-0.130042,0.433420,-0.616990,-0.405913,-1.087765,-0.451190,-0.117686,-0.419977,-0.899872,0.245676,-0.050177,-0.050995,16.792658,-14.452803,-37.734161,,,,,,
1478536461.77,-0.138474,0.430739,-0.622307,-0.290754,-0.966167,-0.417240,-0.125424,-0.417542,-0.899960,0.220639,-0.113677,-0.138798,16.176626,-13.822165,-38.236221,,,,,,
1478536461.78,-0.144802,0.428369,-0.627690,-0.303912,-0.770679,-0.437900,-0.131258,-0.415388,-0.900125,0.190004,-0.134997,-0.082984,15.828680,-13.624654,-38.452118,,,,,,
1478536461.79,-0.148169,0.424732,-0.633846,-0.470744,-0.488023,-0.492912,-0.134510,-0.412077,-0.901166,0.193257,-0.138308,-0.081943,15.828680,-13.624654,-38.452118,,,,,,
1478536461.81,-0.138853,0.408952,-0.649883,-1.065277,0.571514,-0.590515,-0.126994,-0.397648,-0.908707,0.096354,-0.198269,0.034760,15.397295,-13.188330,-38.778027,,,,,,
1478536461.80,-0.146817,0.418390,-0.641459,-0.775640,-0.029012,-0.588461,-0.133672,-0.406290,-0.903914,0.103032,-0.189627,0.029967,15.397295,-13.188330,-38.778027,,,,,,
1478536461.82,-0.126524,0.396416,-0.658122,-1.347724,0.941657,-0.544424,-0.116401,-0.386115,-0.915077,0.038063,-0.222329,0.112312,15.663263,-12.309389,-38.960045,,,,,,
1478536461.83,-0.112341,0.381564,-0.665492,-1.507158,1.125358,-0.445578,-0.104043,-0.372372,-0.922233,0.029061,-0.180454,0.152824,15.663263,-12.309389,-38.960045,,,,,,
1478536461.84,-0.098152,0.366240,-0.670925,-1.485707,1.150075,-0.282567,-0.091496,-0.358107,-0.929187,0.029682,-0.035814,0.156146,16.588709,-11.005020,-38.967270,,,,,,
1478536461.85,-0.086526,0.352157,-0.674216,-1.304162,0.928599,-0.140071,-0.081114,-0.344923,-0.935119,0.029234,0.049742,0.140075,16.588709,-11.005020,-38.967270,,,,,,
1478536461.86,-0.078655,0.341079,-0.676646,-0.977572,0.573123,-0.134262,-0.074048,-0.334505,-0.939481,0.055096,0.038743,0.105389,17.525717,-9.745822,-38.892315,,,,,,
1478536461.87,-0.074477,0.334711,-0.678943,-0.493546,0.263445,-0.167425,-0.070279,-0.328496,-0.941887,0.071225,0.002233,0.035515,17.525717,-9.745822,-38.892315,,,,,,
1478536461.88,-0.073243,0.333652,-0.681258,0.009294,-0.033619,-0.216474,-0.069142,-0.327495,-0.942320,0.046910,-0.007115,-0.039873,17.960752,-9.001883,-38.873142,,,,,,
1478536461.89,-0.075031,0.337139,-0.684477,0.392129,-0.341815,-0.350466,-0.070741,-0.330788,-0.941050,0.035142,0.013634,-0.105367,17.960752,-9.001883,-38.873142,,,,,,
1478536461.90,-0.078681,0.342777,-0.689322,0.516241,-0.539995,-0.517033,-0.074027,-0.336104,-0.938911,0.024070,0.012938,-0.138191,17.916744,-8.984131,-38.897552,,,,,,
1478536461.91,-0.082115,0.347947,-0.695814,0.404721,-0.517330,-0.644123,-0.077107,-0.340968,-0.936907,0.008519,-0.001302,-0.145094,17.916744,-8.984131,-38.897552,,,,,,
1478536461.92,-0.083080,0.351062,-0.702958,0.181131,-0.237877,-0.653295,-0.077923,-0.343895,-0.935769,-0.012867,-0.026695,-0.114814,17.596844,-9.167048,-39.000774,,,,,,
1478536461.93,-0.080546,0.350939,-0.709548,-0.147763,0.106838,-0.558388,-0.075555,-0.343780,-0.936006,0.062402,-0.004456,0.108583,17.527328,-9.144606,-39.037327,,,,,,
1478536461.94,-0.075633,0.347224,-0.715014,-0.468071,0.344935,-0.425989,-0.071051,-0.340289,-0.937633,0.114783,-0.000761,0.129100,17.593695,-9.011940,-39.038322,,,,,,
1478536461.95,-0.069178,0.340551,-0.719049,-0.714545,0.522707,-0.273110,-0.065154,-0.334007,-0.940316,0.108885,-0.007042,0.131783,17.593695,-9.011940,-39.038322,,,,,,
1478536461.97,-0.062369,0.332154,-0.721156,-0.831162,0.592195,-0.091998,-0.058921,-0.326080,-0.943504,0.133583,-0.023728,0.129112,17.593695,-9.011940,-39.038322,,,,,,
1478536461.98,-0.056372,0.323459,-0.721050,-0.810385,0.556034,0.103918,-0.053420,-0.317849,-0.946635,0.149077,-0.025596,0.107433,18.232664,-8.079398,-38.949165,,,,,,
1478536461.99,-0.052147,0.316261,-0.719343,-0.616908,0.407861,0.214688,-0.049538,-0.311015,-0.949113,0.141991,-0.016606,0.049851,18.232664,-8.079398,-38.949165,,,,,,
1478536462.00,-0.050027,0.312315,-0.717302,-0.264145,0.227183,0.188490,-0.047587,-0.307262,-0.950434,0.117396,0.000012,-0.020620,18.632401,-7.514215,-38.873055,,,,,,
1478536462.01,-0.046967,0.311143,-0.716503,-0.103317,0.301199,0.032576,-0.044695,-0.306147,-0.950934,0.110324,0.008433,-0.085351,18.632401,-7.514215,-38.873055,,,,,,
1478536462.02,-0.050341,0.309425,-0.718081,-0.183663,-0.623691,-0.185997,-0.047930,-0.304511,-0.951302,0.104602,-0.001626,-0.122749,18.845625,-7.376206,-38.796623,,,,,,
1478536462.03,-0.058761,0.308581,-0.722021,-0.058775,-0.915378,-0.408617,-0.055953,-0.303707,-0.951121,0.111343,-0.007221,0.085215,18.845625,-7.376206,-38.796623,,,,,,
1478536462.04,-0.063882,0.309217,-0.728170,0.041499,-0.575507,-0.604234,-0.060811,-0.304312,-0.950629,0.121709,-0.106912,-0.175057,18.358133,-7.170705,-39.067940,,,,,,
1478536462.05,-0.065348,0.310432,-0.735736,0.085514,-0.288644,-0.713916,-0.062180,-0.305470,-0.950169,-0.022583,-0.135692,-0.162181,18.358133,-7.170705,-39.067940,,,,,,
1478536462.06,-0.063309,0.312237,-0.744000,0.131745,0.039828,-0.770304,-0.060208,-0.307189,-0.949742,-0.111271,-0.047807,-0.132182,18.029596,-6.972017,-39.256447,,,,,,
1478536462.07,-0.058399,0.314018,-0.752543,0.109517,0.262359,-0.778061,-0.055512,-0.308882,-0.949479,-0.113525,0.008528,-0.200759,18.029596,-6.972017,-39.256447,,,,,,
1478536462.08,-0.052625,0.315192,-0.760567,0.057280,0.320847,-0.712348,-0.050009,-0.309999,-0.949421,-0.089639,-0.005324,-0.189831,18.210941,-6.780309,-39.206287,,,,,,
1478536462.09,-0.046967,0.315524,-0.767612,-0.028577,0.330578,-0.608276,-0.044632,-0.310315,-0.949586,-0.035355,-0.030475,-0.171554,18.210941,-6.780309,-39.206287,,,,,,
1478536462.10,-0.042854,0.314107,-0.773271,-0.203757,0.165095,-0.468197,-0.040745,-0.308967,-0.950200,0.096867,0.021919,0.070301,18.571686,-6.545021,-39.076836,,,,,,
1478536462.11,-0.020556,0.313101,-0.784083,-0.393472,-0.205919,-0.307696,-0.019556,-0.308010,-0.951182,0.110696,0.012432,0.082576,18.698196,-6.381308,-39.043568,,,,,,
1478536462.12,-0.023877,0.307889,-0.786724,-0.530164,-0.442557,-0.207558,-0.022752,-0.303047,-0.952704,0.113893,0.007469,0.084097,18.698196,-6.381308,-39.043568,,,,,,
1478536462.13,-0.028704,0.302109,-0.788863,-0.553315,-0.532027,-0.173268,-0.027400,-0.297534,-0.954318,0.115077,-0.039303,0.052356,19.353827,-5.883159,-38.801567,,,,,,
1478536462.14,-0.033434,0.297021,-0.790957,-0.457695,-0.490584,-0.179946,-0.031964,-0.292673,-0.955678,0.119641,-0.044165,0.053716,19.353827,-5.883159,-38.801567,,,,,,
1478536462.15,-0.036669,0.293735,-0.793480,-0.269717,-0.331928,-0.235101,-0.035090,-0.289530,-0.956526,0.082591,-0.047491,-0.010866,18.953636,-5.384265,-39.070618,,,,,,
1478536462.16,-0.037490,0.292724,-0.796700,-0.049519,-0.106179,-0.304414,-0.035887,-0.288561,-0.956789,0.019819,-0.042753,-0.062224,18.953636,-5.384265,-39.070618,,,,,,
1478536462.18,-0.035344,0.293840,-0.800389,0.131142,0.164883,-0.349307,-0.033822,-0.289630,-0.956541,-0.032539,-0.028180,-0.082995,18.757599,-5.107908,-39.202114,,,,,,
1478536462.19,-0.031202,0.296101,-0.804423,0.221961,0.315315,-0.378744,-0.029840,-0.291793,-0.956016,-0.070227,-0.008424,-0.090356,18.757599,-5.107908,-39.202114,,,,,,
1478536462.20,-0.026287,0.298790,-0.808311,0.248078,0.364693,-0.349766,-0.025120,-0.294364,-0.955363,-0.094112,0.011543,-0.076864,18.954281,-5.088636,-39.109909,,,,,,
1478536462.21,-0.022408,0.301291,-0.811584,0.215347,0.220528,-0.288935,-0.021397,-0.296753,-0.954714,-0.078808,0.028611,-0.049848,18.954281,-5.088636,-39.109909,,,,,,
1478536462.22,-0.020423,0.302372,-0.814536,0.047426,0.074629,-0.265594,-0.019495,-0.297785,-0.954434,-0.025259,0.024607,0.005856,19.251049,-5.150664,-38.956535,,,,,,
1478536462.23,-0.019920,0.301099,-0.817219,-0.178616,-0.068017,-0.229655,-0.019023,-0.296570,-0.954822,0.022563,0.017105,0.077212,19.251049,-5.150664,-38.956535,,,,,,
1478536462.24,-0.021310,0.298052,-0.819308,-0.328660,-0.230201,-0.168987,-0.020369,-0.293659,-0.955693,0.045073,0.013980,0.161351,19.310207,-5.035082,-38.942368,,,,,,
1478536462.25,-0.024309,0.293693,-0.820962,-0.441091,-0.364724,-0.135225,-0.023266,-0.289489,-0.956899,0.054821,-0.001161,0.209661,19.310207,-5.035082,-38.942368,,,,,,
1478536462.26,-0.028926,0.288858,-0.822475,-0.463677,-0.519556,-0.121901,-0.027724,-0.284858,-0.958169,0.022643,0.018653,0.198693,19.112776,-4.677540,-39.084095,,,,,,
1478536462.27,-0.035276,0.284244,-0.823524,-0.428202,-0.663298,-0.062545,-0.033854,-0.280431,-0.959277,0.001459,0.027990,0.155444,18.921068,-4.461751,-39.202419,,,,,,
1478536462.28,-0.042711,0.280679,-0.823478,-0.301328,-0.710422,0.043104,-0.041028,-0.277008,-0.959991,0.006711,0.033935,0.109878,18.921068,-4.461751,-39.202419,,,,,,
1478536462.29,-0.050254,0.278595,-0.822562,-0.162505,-0.687860,0.106050,-0.048296,-0.275005,-0.960229,0.000231,0.047222,0.096826,18.370380,-4.126247,-39.499962,,,,,,
1478536462.30,-0.058037,0.277829,-0.821384,-0.032154,-0.714311,0.109605,-0.055780,-0.274269,-0.960034,-0.024237,0.071129,0.079266,18.370380,-4.126247,-39.499962,,,,,,
1478536462.31,-0.065845,0.278546,-0.820127,0.110499,-0.704790,0.109050,-0.063261,-0.274958,-0.959373,-0.073030,0.093775,0.057075,17.776958,-4.056392,-39.777752,,,,,,
1478536462.32,-0.073188,0.280370,-0.819184,0.192160,-0.663014,0.053107,-0.070267,-0.276711,-0.958381,-0.080016,0.104729,0.037574,17.776958,-4.056392,-39.777752,,,,,,
1478536462.33,-0.080341,0.282181,-0.819230,0.155774,-0.702070,-0.033837,-0.077081,-0.278451,-0.957352,-0.071113,0.076638,0.042817,17.188593,-4.197057,-40.021004,,,,,,
1478536462.34,-0.089043,0.283212,-0.818382,0.082673,-0.837484,0.132964,-0.085383,-0.279441,-0.956359,-0.090612,0.123008,0.177230,17.188593,-4.197057,-40.021004,,,,,,
1478536462.35,-0.099821,0.282839,-0.814406,-0.032189,-0.945871,0.437296,-0.095696,-0.279083,-0.955487,-0.048576,0.112548,0.223034,16.558714,-4.322346,-40.272449,,,,,,
1478536462.36,-0.112807,0.280863,-0.808098,-0.155433,-1.118987,0.639578,-0.108157,-0.277185,-0.954710,0.001315,0.096903,0.249143,16.151878,-4.384618,-40.430630,,,,,,
1478536462.38,-0.128634,0.277577,-0.800405,-0.245252,-1.367883,0.760222,-0.123369,-0.274026,-0.953776,0.048464,0.132272,0.268199,16.151878,-4.384618,-40.430630,,,,,,
1478536462.39,-0.147546,0.273351,-0.791571,-0.296941,-1.640200,0.898983,-0.141553,-0.269960,-0.952410,0.093655,0.167924,0.277590,15.076705,-4.452648,-40.836388,,,,,,
1478536462.40,-0.169677,0.268223,-0.779671,-0.312337,-1.846084,1.250548,-0.162826,-0.265019,-0.950396,0.142059,0.166950,0.279742,15.076705,-4.452648,-40.836388,,,,,,
1478536462.41,-0.194136,0.262608,-0.764242,-0.246391,-1.973194,1.557807,-0.186305,-0.259600,-0.947575,0.163203,0.138079,0.262577,13.524620,-4.496653,-41.371593,,,,,,
1478536462.42,-0.221661,0.258066,-0.746174,0.000309,-2.267747,1.760120,-0.212570,-0.255211,-0.943229,0.179459,0.169304,0.268241,13.524620,-4.496653,-41.371593,,,,,,
1478536462.43,-0.255116,0.256759,-0.725597,0.446463,-2.837520,1.892692,-0.244085,-0.253948,-0.935913,0.201132,0.219096,0.285614,11.565933,-4.766499,-41.931534,,,,,,
1478536462.44,-0.295152,0.259963,-0.703080,0.994770,-3.405640,1.902840,-0.281111,-0.257045,-0.924610,0.211379,0.223888,0.258106,11.565933,-4.766499,-41.931534,,,,,,
1478536462.45,-0.342884,0.266937,-0.679400,1.390572,-4.160830,1.844035,-0.324297,-0.263778,-0.908434,0.217058,0.239486,0.215410,8.720337,-5.697465,-42.499866,,,,,,
1478536462.46,-0.400616,0.273575,-0.654886,1.374034,-5.121005,1.894345,-0.375483,-0.270176,-0.886577,0.227640,0.263553,0.171687,8.720337,-5.697465,-42.499866,,,,,,
1478536462.47,-0.468426,0.274441,-0.628068,0.995250,-5.920899,2.327959,-0.434586,-0.271009,-0.858888,0.241242,0.268674,0.222932,4.503572,-7.181117,-42.928936,,,,,,
1478536462.48,-0.539855,0.265794,-0.598187,0.485241,-6.010896,2.953738,-0.495961,-0.262676,-0.827662,0.322103,0.205700,0.284464,4.503572,-7.181117,-42.928936,,,,,,
1478536462.49,-0.608158,0.248082,-0.565233,0.165202,-5.585900,3.650834,-0.553864,-0.245545,-0.795576,0.383927,0.203415,0.347716,-1.234465,-8.034247,-42.996174,,,,,,
1478536462.50,-0.673668,0.222798,-0.529377,0.044317,-5.410891,4.218889,-0.608437,-0.220960,-0.762221,0.439049,0.328641,0.420028,-1.234465,-8.034247,-42.996174,,,,,,
1478536462.51,-0.740142,0.193143,-0.491246,0.225365,-5.681584,4.623442,-0.661853,-0.191945,-0.724643,0.431919,0.219349,0.215747,-6.879383,-7.830123,-42.498322,,,,,,
1478536462.52,-0.811719,0.161480,-0.450267,0.651709,-6.273861,4.916774,-0.716033,-0.160779,-0.679299,0.424132,0.184506,0.070183,-6.879383,-7.830123,-42.498322,,,,,,
1478536462.53,-0.888946,0.128014,-0.406892,1.060603,-6.902693,5.133204,-0.770055,-0.127664,-0.625073,0.387029,0.151102,-0.073687,-12.774235,-7.167654,-41.233330,,,,,,
1478536462.54,-0.969547,0.091251,-0.363634,1.198192,-7.290279,5.291360,-0.821199,-0.091125,-0.563320,0.326051,0.141662,-0.139530,-16.036949,-6.811425,-40.139313,,,,,,
1478536462.55,-1.048973,0.048457,-0.323610,0.971903,-7.236852,5.538614,-0.865894,-0.048438,-0.497877,0.281086,0.158988,-0.102221,-16.036949,-6.811425,-40.139313,,,,,,
1478536462.56,-1.121728,-0.001194,-0.289732,0.539990,-6.669583,5.715337,-0.900851,0.001194,-0.434127,0.167865,0.162029,-0.015779,-22.637188,-5.532865,-37.036316,,,,,,
1478536462.57,-1.182415,-0.054073,-0.263373,0.159280,-5.517891,5.548131,-0.924170,0.054047,-0.378138,-0.017587,0.146225,0.010538,-22.637188,-5.532865,-37.036316,,,,,,
1478536462.59,-1.227506,-0.104662,-0.244319,-0.073016,-4.070020,4.975790,-0.936500,0.104471,-0.334745,-0.230050,0.098150,-0.004595,-27.863092,-2.850792,-33.619415,,,,,,
1478536462.60,-1.259353,-0.148314,-0.229438,0.048682,-2.966820,4.175221,-0.941442,0.147771,-0.303069,-0.397486,0.128886,-0.037980,-27.863092,-2.850792,-33.619415,,,,,,
1478536462.61,-1.282290,-0.183587,-0.215045,0.392412,-2.239016,3.467592,-0.942560,0.182558,-0.279739,-0.517203,0.198958,-0.140778,-30.610001,0.099360,-31.269184,,,,,,
1478536462.62,-1.298267,-0.216684,-0.198720,0.641562,-1.714300,3.454973,-0.940572,0.214993,-0.262874,-0.588069,0.272602,-0.250203,-30.610001,0.099360,-31.269184,,,,,,
1478536462.63,-1.308830,-0.248760,-0.181962,0.691495,-1.247810,3.312909,-0.936151,0.246202,-0.251009,-0.579581,0.268095,-0.311110,-31.887848,2.135435,-29.888947,,,,,,
1478536462.64,-1.316017,-0.282649,-0.165821,0.589410,-1.101999,3.545680,-0.929320,0.278900,-0.242031,-0.442323,-0.136658,-0.319782,-31.887848,2.135435,-29.888947,,,,,,
1478536462.65,-1.323536,-0.317697,-0.148462,0.756267,-1.241567,3.643655,-0.921066,0.312380,-0.232500,-0.567185,-0.097567,-0.249082,-32.428513,4.050552,-29.098598,,,,,,
1478536462.66,-1.333146,-0.353220,-0.127612,1.103064,-1.720369,3.769578,-0.911893,0.345921,-0.220886,-0.471332,-0.382634,-0.236329,-32.428513,4.050552,-29.098598,,,,,,
1478536462.67,-1.349275,-0.390003,-0.100703,1.679871,-2.756449,4.005118,-0.902307,0.380191,-0.203215,-0.302588,-0.078128,-0.202623,-32.871452,6.058802,-28.240088,,,,,,
1478536462.68,-1.374147,-0.424970,-0.066929,2.363308,-3.916393,3.756160,-0.893492,0.412294,-0.178005,-0.185640,-0.122834,-0.271519,-33.322342,6.986177,-27.487431,,,,,,
1478536462.69,-1.405190,-0.453747,-0.027488,2.991574,-4.747341,3.170936,-0.886514,0.438336,-0.148169,-0.126624,0.063632,-0.273126,-33.322342,6.986177,-27.487431,,,,,,
1478536462.70,-1.440566,-0.480584,0.017990,3.598252,-5.492691,3.122368,-0.879216,0.462297,-0.115152,-0.196986,0.513014,-0.257269,-35.004715,8.165514,-24.954727,,,,,,
1478536462.71,-1.477124,-0.510395,0.070635,4.205148,-5.943651,3.358277,-0.868726,0.488522,-0.081615,-0.230959,0.447849,-0.327336,-35.004715,8.165514,-24.954727,,,,,,
1478536462.72,-1.511231,-0.541023,0.127519,4.486509,-5.929445,3.195302,-0.855662,0.515014,-0.051028,-0.170278,0.036515,-0.329603,-37.157528,8.769691,-21.381172,,,,,,
1478536462.73,-1.541347,-0.569360,0.183476,4.336136,-5.558397,2.790723,-0.841881,0.539093,-0.024800,-0.286171,-0.085480,-0.215480,-37.157528,8.769691,-21.381172,,,,,,
1478536462.74,-1.566411,-0.595168,0.234704,3.912705,-4.876582,2.440731,-0.828047,0.560648,-0.003631,-0.464999,0.051718,-0.031128,-38.951653,9.424247,-17.569750,,,,,,
1478536462.75,-1.585752,-0.618941,0.280375,3.475018,-4.142447,2.181635,-0.814402,0.580173,0.012181,-0.536931,0.167645,0.135128,-38.951653,9.424247,-17.569750,,,,,,
1478536462.76,-1.600107,-0.641453,0.321314,3.111641,-3.506654,2.051596,-0.800883,0.598361,0.023481,-0.556768,0.166532,0.217516,-40.042252,10.125362,-14.451270,,,,,,
1478536462.77,-1.608858,-0.664999,0.359903,2.963699,-2.912567,2.180474,-0.786347,0.617059,0.029944,-0.576522,0.096671,0.222650,-40.042252,10.125362,-14.451270,,,,,,
1478536462.79,-1.612014,-0.690189,0.398416,2.954065,-2.527842,2.305071,-0.770471,0.636683,0.031775,-0.572562,0.053152,0.173822,-40.518883,11.044268,-12.287715,,,,,,
1478536462.80,-1.612888,-0.715842,0.439045,3.092731,-2.635865,2.308896,-0.753872,0.656253,0.031751,-0.491825,-0.026630,0.125095,-40.518883,11.044268,-12.287715,,,,,,
1478536462.81,-1.613142,-0.740571,0.483692,3.326306,-2.922628,2.166255,-0.737422,0.674710,0.031245,-0.450719,-0.002087,0.051518,-40.584129,12.277309,-10.813876,,,,,,
1478536462.82,-1.612219,-0.761610,0.531560,3.400022,-3.032239,1.727646,-0.723105,0.690087,0.029970,-0.470468,0.012717,-0.005266,-40.584129,12.277309,-10.813876,,,,,,
1478536462.83,-1.635169,-0.776208,0.546072,-0.330043,-3.240450,1.317961,-0.712097,0.700579,0.045903,-0.517258,0.022291,-0.012913,-40.653004,13.314974,-9.208077,,,,,,
1478536462.84,-1.687433,-0.794693,0.501821,-3.032093,-1.422027,2.252722,-0.695745,0.713648,0.081520,-0.524196,0.082097,0.019829,-40.747444,13.789595,-8.014789,,,,,,
1478536462.85,-1.717854,-0.817318,0.467582,-1.465034,-0.360248,2.405822,-0.676795,0.729314,0.100251,0.150977,-0.539708,3.398513,-40.747444,13.789595,-8.014789,,,,,,
1478536462.86,-1.727336,-0.841690,0.455204,-0.306664,0.080523,2.584355,-0.658058,0.745770,0.103862,-0.203560,-0.145459,-0.034862,-40.239983,16.036148,-6.191084,,,,,,
1478536462.87,-1.726886,-0.865903,0.447511,0.001120,0.611520,2.018119,-0.640075,0.761681,0.100728,-0.328583,0.171562,-0.751043,-40.239983,16.036148,-6.191084,,,,,,
1478536462.88,-1.726154,-0.875616,0.447796,0.185175,-0.104705,0.567254,-0.632810,0.767938,0.099111,0.627530,0.318106,0.242976,-39.349331,18.064943,-6.327085,,,,,,
1478536462.89,-1.725073,-0.874167,0.453578,0.402584,-0.388495,-0.375318,-0.634015,0.767009,0.098597,-0.525882,0.281285,-0.194239,-39.349331,18.064943,-6.327085,,,,,,
1478536462.90,-1.723040,-0.872016,0.466108,0.840207,-0.849685,-0.220173,-0.635843,0.765628,0.097558,-0.319525,0.191541,0.113608,-39.229599,18.329493,-6.309690,,,,,,
1478536462.91,-1.721499,-0.875843,0.483113,1.135309,-1.139588,0.343338,-0.633091,0.768084,0.096138,-0.024868,0.062101,-0.053749,-39.229599,18.329493,-6.309690,,,,,,
1478536462.92,-1.724209,-0.886351,0.495104,0.723149,-1.141960,1.059809,-0.624818,0.774770,0.096614,0.204973,-0.211095,-0.185024,-39.368473,18.165747,-5.905332,,,,,,
1478536462.93,-1.733506,-0.903621,0.498983,0.463793,-1.142037,1.760050,-0.610597,0.785572,0.100236,0.098649,-0.118245,-0.193803,-39.368473,18.165747,-5.905332,,,,,,
1478536462.94,-1.740891,-0.927929,0.501525,0.552600,-0.816797,2.407089,-0.590841,0.800380,0.101479,0.089804,-0.151775,0.147803,-39.021576,19.101124,-5.216085,,,,,,
1478536462.95,-1.747281,-0.957043,0.503667,0.610928,-0.791135,2.776660,-0.566994,0.817492,0.101118,0.094780,-0.083331,0.058840,-39.021576,19.101124,-5.216085,,,,,,
1478536462.96,-1.753081,-0.987162,0.508730,0.856518,-0.998149,2.717472,-0.541930,0.834466,0.099894,0.045791,-0.153283,-0.072505,-38.061169,21.054047,-4.776853,,,,,,
1478536462.97,-1.752929,-1.012452,0.523009,1.245150,-1.180642,2.055293,-0.521020,0.848134,0.095958,-0.052329,-0.228169,-0.046504,-38.061169,21.054047,-4.776853,,,,,,
1478536462.98,-1.750355,-1.032527,0.543406,1.325704,-1.489250,1.609104,-0.504409,0.858597,0.091557,-0.117158,-0.229645,-0.034352,-37.003616,22.935524,-4.408845,,,,,,
1478536463.00,-1.750619,-1.048967,0.558869,0.892457,-1.108679,1.338870,-0.490430,0.866909,0.089153,-0.085559,-0.059047,-0.092159,-36.653015,23.531878,-4.189409,,,,,,
1478536463.01,-1.745989,-1.062552,0.567038,0.520535,0.052740,1.197381,-0.479195,0.873600,0.084821,0.158653,-0.161396,0.005282,-36.653015,23.531878,-4.189409,,,,,,
1478536463.02,-1.739879,-1.076611,0.570480,0.370936,0.269686,1.320337,-0.467551,0.880355,0.079817,0.209982,-0.361602,0.108309,-36.059818,24.461275,-4.009935,,,,,,
1478536463.03,-1.735497,-1.092697,0.575266,0.490302,-0.052809,1.518830,-0.453866,0.887871,0.075436,0.187890,-0.432000,-0.034344,-36.059818,24.461275,-4.009935,,,,,,
1478536463.04,-1.732943,-1.110115,0.579850,0.448560,-0.172645,1.620820,-0.438727,0.895750,0.071768,0.114569,-0.167829,-0.146552,-35.321045,25.460865,-4.348786,,,,,,
1478536463.05,-1.731664,-1.127550,0.583565,0.407057,-0.195017,1.604654,-0.423337,0.903364,0.068695,-0.026111,-0.242232,-0.070465,-35.321045,25.460865,-4.348786,,,,,,
1478536463.06,-1.731989,-1.145550,0.584944,0.303137,-0.142177,1.716322,-0.407197,0.910937,0.066212,-0.088469,-0.330279,0.057507,-34.457169,26.599092,-4.464954,,,,,,
1478536463.07,-1.733156,-1.165620,0.583350,0.233043,0.098987,1.956530,-0.388997,0.919033,0.063718,-0.000820,-0.184124,0.025164,-34.457169,26.599092,-4.464954,,,,,,
1478536463.08,-1.734340,-1.187385,0.578929,0.160547,0.313727,2.102712,-0.369095,0.927394,0.060907,0.049209,-0.132014,-0.028162,-33.439632,27.847965,-4.585376,,,,,,
1478536463.09,-1.737666,-1.210174,0.572066,0.107997,0.270574,2.195893,-0.347956,0.935677,0.058608,0.088037,-0.086571,0.029313,-33.439632,27.847965,-4.585376,,,,,,
1478536463.10,-1.745549,-1.233269,0.560327,-0.045391,0.337258,2.244064,-0.326111,0.943577,0.057576,0.045044,-0.028583,0.038951,-32.135727,29.297047,-4.870528,,,,,,
1478536463.11,-1.757517,-1.256512,0.540936,-0.240700,0.710368,2.293816,-0.303763,0.951018,0.057387,-0.026788,-0.081908,0.052156,-32.135727,29.297047,-4.870528,,,,,,
1478536463.12,-1.773980,-1.279472,0.513884,-0.334924,0.931289,2.278914,-0.281313,0.957864,0.057958,-0.032683,-0.021356,0.068919,-30.662964,30.796373,-5.109796,,,,,,
1478536463.13,-1.788775,-1.301577,0.488694,-0.135845,0.832021,2.168177,-0.259685,0.963979,0.057520,-0.025913,0.124309,0.100302,-30.662964,30.796373,-5.109796,,,,,,
1478536463.14,-1.797703,-1.322997,0.477335,0.267590,-0.084183,1.998141,-0.238984,0.969454,0.055177,-0.063918,0.188627,0.067213,-29.077023,32.235130,-5.492454,,,,,,
1478536463.15,-1.814614,-1.342985,0.465061,0.105944,-0.524433,1.883047,-0.219167,0.974163,0.054521,-0.158794,0.292057,-0.099733,-29.077023,32.235130,-5.492454,,,,,,
1478536463.16,-1.840299,-1.360022,0.443892,-0.032887,-0.433965,1.615828,-0.201665,0.977869,0.055705,-0.230143,0.411428,-0.331156,-27.726604,33.396816,-5.534599,,,,,,
1478536463.17,-1.870785,-1.374577,0.416712,-0.138557,-0.368652,1.421872,-0.186255,0.980811,0.057613,-0.014398,0.329431,0.061588,-27.160385,33.881840,-5.392415,,,,,,
1478536463.18,-1.904899,-1.386336,0.384114,-0.221937,-0.120976,1.176102,-0.173274,0.983035,0.060146,-0.044561,0.258267,0.062977,-27.160385,33.881840,-5.392415,,,,,,
1478536463.20,-1.929401,-1.395085,0.357871,-0.111335,0.176768,0.851342,-0.163688,0.984603,0.061352,-0.079369,0.282640,0.111988,-26.211468,34.662968,-5.116777,,,,,,
1478536463.21,-1.929707,-1.395145,0.357478,0.063871,-0.105058,-0.499055,-0.163614,0.984613,0.061381,-0.143072,0.237265,0.043050,-26.211468,34.662968,-5.116777,,,,,,
1478536463.22,-1.850364,-1.370316,0.447732,1.141542,-1.122418,-3.721332,-0.191409,0.979971,0.054951,-0.106748,0.304605,-0.128666,-25.859682,34.928486,-5.101137,,,,,,
1478536463.23,-1.761438,-1.325220,0.553546,0.806354,-1.577951,-4.345199,-0.238711,0.969997,0.046068,-0.998930,0.210957,-0.313447,-25.859682,34.928486,-5.101137,,,,,,
1478536463.24,-1.792532,-1.305392,0.544181,-0.936825,-1.709260,-1.180595,-0.255878,0.964986,0.057686,-2.358243,-0.885748,-0.978599,-28.622705,32.694656,-5.152088,,,,,,
1478536463.25,-1.780605,-1.289748,0.556400,0.406750,0.375542,-1.659990,-0.271281,0.960765,0.057767,1.255610,0.044759,0.548815,-28.622705,32.694656,-5.152088,,,,,,
1478536463.26,-1.741718,-1.274031,0.592258,0.597398,0.247943,-1.644046,-0.288167,0.956287,0.049739,3.120138,0.850384,0.980305,-29.850714,31.703716,-4.307336,,,,,,
1478536463.27,-1.728970,-1.256295,0.608473,0.058115,-0.340380,-1.774357,-0.305480,0.950951,0.048726,0.246642,-0.443688,-0.414815,-29.850714,31.703716,-4.307336,,,,,,
1478536463.28,-1.726024,-1.238591,0.615397,-0.035189,-0.340858,-1.638333,-0.322207,0.945325,0.050421,0.169253,-0.000868,-0.035651,-30.953453,30.579275,-4.640660,,,,,,
1478536463.29,-1.719931,-1.224253,0.626038,0.167764,-0.390599,-1.315686,-0.335879,0.940552,0.050466,-0.004652,0.233672,0.159419,-30.953453,30.579275,-4.640660,,,,,,
1478536463.30,-1.717717,-1.213197,0.633641,0.024973,-0.483104,-1.008346,-0.346255,0.936740,0.051241,0.063632,0.086545,0.015287,-31.966116,29.552284,-4.424240,,,,,,
1478536463.31,-1.727254,-1.204266,0.628167,-0.417761,-0.379142,-0.749125,-0.354001,0.933576,0.055843,0.204725,0.044848,-0.077037,-31.966116,29.552284,-4.424240,,,,,,
1478536463.32,-1.742985,-1.197288,0.613660,-0.644138,-0.177232,-0.511738,-0.359488,0.931053,0.062519,0.098029,0.089608,0.019879,-32.586521,28.920782,-4.055968,,,,,,
1478536463.33,-1.763881,-1.193111,0.596763,-0.633121,-0.655917,-0.200564,-0.361917,0.929521,0.070762,-0.111853,0.070311,0.111183,-32.768921,28.748707,-3.801783,,,,,,
1478536463.34,-1.792089,-1.193288,0.579094,-0.610781,-1.246060,0.283131,-0.359617,0.929586,0.080905,0.066465,-0.148321,-0.089923,-32.768921,28.748707,-3.801783,,,,,,
1478536463.35,-1.830071,-1.200975,0.552223,-0.753060,-1.176527,1.170308,-0.349368,0.932392,0.092668,0.147509,-0.282154,-0.080919,-32.866936,28.745361,-2.865744,,,,,,
1478536463.36,-1.856672,-1.215375,0.532346,-0.073498,-0.564553,1.527913,-0.333863,0.937500,0.098131,0.251129,-0.536911,0.181776,-32.866936,28.745361,-2.865744,,,,,,
1478536463.37,-1.860879,-1.230231,0.528081,0.344041,0.171763,1.327731,-0.320064,0.942566,0.095540,0.174770,-0.611862,0.050624,-32.170280,29.602482,-1.873461,,,,,,
1478536463.38,-1.851122,-1.242735,0.531289,0.458671,0.728871,1.045256,-0.309631,0.946669,0.089145,-0.227570,-0.316008,-0.280353,-32.170280,29.602482,-1.873461,,,,,,
1478536463.39,-1.845814,-1.252096,0.531513,0.104669,0.304958,0.762764,-0.301558,0.949643,0.085090,-0.303194,-0.407972,-0.036506,-31.365093,30.425026,-2.300609,,,,,,
1478536463.41,-1.844323,-1.258084,0.538827,0.552869,-0.697248,0.412084,-0.296204,0.951503,0.083102,0.005051,-0.643794,0.073163,-31.365093,30.425026,-2.300609,,,,,,
1478536463.42,-1.830152,-1.264604,0.568945,1.091299,-1.576694,0.378286,-0.291349,0.953488,0.077304,0.158780,-0.750302,0.282117,-30.933506,30.849176,-2.488091,,,,,,
1478536463.43,-1.809750,-1.271537,0.608269,1.300824,-1.562797,0.346736,-0.286435,0.955555,0.069778,0.335157,-0.463932,-0.358749,-30.933506,30.849176,-2.488091,,,,,,
1478536463.44,-1.776115,-1.278745,0.657765,1.544226,-1.233952,0.386398,-0.281870,0.957655,0.058700,0.209757,-0.321669,-0.206039,-30.769909,31.031034,-2.243143,,,,,,
1478536463.45,-1.732562,-1.283075,0.711959,1.475120,-0.632248,-0.035619,-0.280064,0.958893,0.045704,0.062901,-0.196182,0.099239,-30.769909,31.031034,-2.243143,,,,,,
1478536463.46,-1.694032,-1.277602,0.751830,0.840247,0.187823,-0.798179,-0.286820,0.957325,0.035526,0.050355,-0.085591,0.058788,-30.657352,31.118649,-2.549596,,,,,,
1478536463.47,-1.673127,-1.271557,0.776477,0.579854,-0.457744,-0.542071,-0.293252,0.955561,0.030114,-0.276237,-0.259775,-0.027047,-30.657352,31.118649,-2.549596,,,,,,
1478536463.48,-1.664090,-1.272715,0.793360,0.420950,-0.650196,0.311269,-0.292409,0.955902,0.027359,-0.658534,-0.194275,-0.203217,-31.092110,30.643288,-3.002214,,,,,,
1478536463.49,-1.661458,-1.282608,0.798886,0.194766,-0.118808,1.070473,-0.283048,0.958760,0.025732,-0.162935,0.573008,-0.165121,-31.092728,30.649036,-2.936483,,,,,,
1478536463.50,-1.655439,-1.294371,0.802416,0.196799,0.356076,1.071070,-0.271941,0.962037,0.023073,0.104659,1.294783,0.252241,-31.092728,30.649036,-2.936483,,,,,,
1478536463.51,-1.643664,-1.300444,0.809768,0.259969,0.394844,0.335456,-0.266362,0.963677,0.019444,0.140492,1.382560,0.074566,-30.431816,31.292141,-3.074154,,,,,,
1478536463.52,-1.632605,-1.300696,0.818581,0.187454,0.263842,-0.017825,-0.266319,0.963744,0.016482,-0.040505,1.097322,-0.086108,-30.431816,31.292141,-3.074154,,,,,,
1478536463.53,-1.624495,-1.302444,0.822763,0.120651,0.422063,0.234868,-0.264761,0.964209,0.014231,-0.255640,0.197046,0.000509,-30.220240,31.458050,-3.445613,,,,,,
1478536463.54,-1.608762,-1.308183,0.831822,0.288613,0.761002,0.635075,-0.259418,0.965715,0.009854,-0.019680,0.029174,0.102421,-30.220240,31.458050,-3.445613,,,,,,
1478536463.55,-1.589871,-1.316213,0.842038,0.244965,0.854941,0.755504,-0.251796,0.967768,0.004804,0.040310,-0.191645,0.132480,-29.949064,31.663624,-3.900289,,,,,,
1478536463.56,-1.575966,-1.322349,0.848581,0.138121,0.623843,0.515025,-0.245896,0.969295,0.001271,-0.097915,-0.244854,0.202998,-29.949064,31.663624,-3.900289,,,,,,
1478536463.57,-1.570293,-1.325330,0.850308,0.000281,0.311670,0.192046,-0.243008,0.970024,-0.000122,-0.075199,-0.016686,0.161163,-29.430740,32.062263,-4.537241,,,,,,
1478536463.58,-1.572569,-1.325519,0.847916,-0.055447,-0.118600,-0.003860,-0.242825,0.970070,0.000430,0.075863,0.066170,-0.035495,-29.430740,32.062263,-4.537241,,,,,,
1478536463.59,-1.577962,-1.325761,0.845326,-0.065308,-0.282118,0.022061,-0.242585,0.970129,0.001738,0.138382,0.052027,-0.112532,-29.310368,32.156082,-4.651095,,,,,,
1478536463.60,-1.583487,-1.325654,0.841641,-0.091801,-0.152043,-0.023443,-0.242675,0.970103,0.003080,0.104384,0.020299,-0.082685,-29.310368,32.156082,-4.651095,,,,,,
1478536463.62,-1.594845,-1.324933,0.831518,-0.312894,-0.155395,-0.076863,-0.243323,0.969928,0.005853,-0.012368,-0.002368,0.036658,-29.327690,32.167290,-4.460491,,,,,,
1478536463.63,-1.611049,-1.323761,0.817143,-0.318826,-0.200996,-0.099482,-0.244332,0.969642,0.009840,-0.006797,-0.006324,0.049028,-29.356186,32.158344,-4.335798,,,,,,
1478536463.64,-1.621684,-1.322705,0.807356,-0.203557,-0.094093,-0.082452,-0.245237,0.969383,0.012490,-0.020327,0.029091,-0.023324,-29.356186,32.158344,-4.335798,,,,,,
1478536463.65,-1.628107,-1.321613,0.801444,-0.128027,-0.068682,-0.108772,-0.246207,0.969114,0.014126,0.032584,0.018587,0.067127,-29.434931,32.124474,-4.043155,,,,,,
1478536463.66,-1.640976,-1.320338,0.789589,-0.404244,-0.114890,-0.105848,-0.247238,0.968799,0.017380,0.047409,0.027966,-0.012375,-29.434931,32.124474,-4.043155,,,,,,
1478536463.67,-1.654735,-1.316918,0.771285,-0.403744,0.362906,-0.304007,-0.250276,0.967946,0.021057,0.162309,0.061534,0.052368,-29.510410,32.080475,-3.837001,,,,,,
1478536463.68,-1.664751,-1.316147,0.759709,-0.245730,0.120784,0.069071,-0.250795,0.967752,0.023633,-0.011137,-0.074304,-0.087766,-29.510410,32.080475,-3.837001,,,,,,
1478536463.69,-1.668808,-1.324850,0.752733,-0.026555,0.336745,1.154001,-0.242306,0.969907,0.023825,0.267987,-0.083692,0.070032,-29.605110,32.004585,-3.739989,,,,,,
1478536463.70,-1.671640,-1.341636,0.743934,-0.082466,0.573793,1.598074,-0.226006,0.973857,0.022869,0.283532,-0.606395,-0.026516,-29.605110,32.004585,-3.739989,,,,,,
1478536463.71,-1.680772,-1.350188,0.729515,-0.249427,0.453221,0.530684,-0.217501,0.975765,0.024017,0.491626,-1.410350,-0.001083,-28.739315,32.760315,-3.944310,,,,,,
1478536463.72,-1.681094,-1.347071,0.722424,-0.116269,0.675444,-0.497686,-0.220516,0.975078,0.024422,0.335262,-1.038432,-0.011726,-28.739315,32.760315,-3.944310,,,,,,
1478536463.73,-1.664065,-1.337446,0.732044,0.149900,0.784143,-1.023054,-0.230234,0.972897,0.021536,0.291528,-1.004712,0.044535,-28.498550,32.946640,-4.134668,,,,,,
1478536463.74,-1.644088,-1.330848,0.739378,0.087069,1.390737,-0.412388,-0.237014,0.971350,0.017402,0.284179,-1.177054,-0.019554,-28.498550,32.946640,-4.134668,,,,,,
1478536463.75,-1.634705,-1.340433,0.729119,-0.257617,1.905873,1.450414,-0.227865,0.973583,0.014582,0.194723,-0.719677,-0.002253,-28.946938,32.461681,-4.801890,,,,,,
1478536463.76,-1.633957,-1.366530,0.704633,-0.380987,2.584853,2.669757,-0.202444,0.979210,0.012804,0.083319,0.073387,0.131407,-28.946938,32.461681,-4.801890,,,,,,
1478536463.77,-1.632971,-1.394195,0.670485,-0.375708,3.396343,2.645096,-0.175345,0.984447,0.010916,0.248511,0.499928,0.176508,-27.520172,33.509502,-5.873448,,,,,,
1478536463.78,-1.620999,-1.419089,0.649724,-0.097881,2.947692,2.374596,-0.150936,0.988514,0.007584,0.317043,0.428188,0.181869,-26.354273,34.293751,-6.643421,,,,,,
1478536463.79,-1.624902,-1.447773,0.625987,-0.291665,1.385782,2.821291,-0.122534,0.992442,0.006636,-0.002420,0.697408,-0.127638,-26.354273,34.293751,-6.643421,,,,,,
1478536463.80,-1.660764,-1.475840,0.584049,-0.173514,0.445735,2.635274,-0.094430,0.995495,0.008519,-0.006430,0.112430,-0.353795,-24.091713,35.678524,-7.834294,,,,,,
1478536463.82,-1.661816,-1.501537,0.579371,0.315524,0.245843,2.346454,-0.068918,0.997603,0.006290,-0.035361,0.369249,-0.330982,-24.091713,35.678524,-7.834294,,,,,,
1478536463.83,-1.602829,-1.521545,0.643958,0.502192,-0.791259,1.695786,-0.049206,0.998787,0.001577,-0.103000,0.217521,-0.060872,-22.057892,36.927818,-8.033031,,,,,,
1478536463.84,-1.504491,-1.533926,0.757188,0.408825,-1.593707,1.028527,-0.036781,0.999320,-0.002442,-0.509576,0.624047,-0.319381,-22.057892,36.927818,-8.033031,,,,,,
1478536463.85,-1.380950,-1.539507,0.903401,0.398495,-2.353955,0.402229,-0.030722,0.999511,-0.005904,-0.577020,0.617830,-0.204744,-21.022972,37.541767,-7.962066,,,,,,
1478536463.86,-1.444607,-1.527123,0.870990,-0.076563,-3.220006,-1.932536,-0.043313,0.999046,-0.005495,-0.386466,0.439567,-0.165312,-21.022972,37.541767,-7.962066,,,,,,
1478536463.87,-1.429411,-1.497975,0.934720,0.940820,-4.782829,-2.705832,-0.072031,0.997350,-0.010253,0.006800,-0.114415,-0.141527,-21.662817,37.367783,-7.008207,,,,,,
1478536463.88,-1.380685,-1.478101,1.029828,1.100485,-4.236713,-1.367326,-0.090895,0.995707,-0.017491,0.804060,-1.995753,-0.639461,-21.662817,37.367783,-7.008207,,,,,,
1478536463.89,-1.356028,-1.469849,1.089157,0.432057,-2.968620,-0.444201,-0.098460,0.994909,-0.021477,0.491237,-0.491522,0.031945,-23.970520,36.188866,-5.524859,,,,,,
1478536463.90,-1.392118,-1.471293,1.074496,-0.248475,-1.653910,0.222860,-0.097758,0.995054,-0.017655,-0.283315,1.208926,0.405396,-23.970520,36.188866,-5.524859,,,,,,
1478536463.91,-1.422609,-1.473625,1.049823,-0.263318,-0.301541,0.129909,-0.095955,0.995283,-0.014324,-0.791176,1.504000,0.387478,-24.460369,36.018787,-4.368200,,,,,,
1478536463.92,-1.440957,-1.473509,1.033827,-0.090758,-0.272885,-0.064317,-0.096316,0.995271,-0.012576,-0.550229,0.770354,0.335880,-24.460369,36.018787,-4.368200,,,,,,
1478536463.93,-1.438645,-1.473938,1.040143,0.088804,-0.412866,0.091492,-0.095863,0.995313,-0.012743,-0.271462,0.101611,0.132112,-24.438623,36.075264,-4.009092,,,,,,
1478536463.94,-1.435585,-1.475635,1.046830,0.044325,-0.229713,0.190781,-0.094150,0.995476,-0.012808,-0.010967,-0.029152,0.026724,-24.438623,36.075264,-4.009092,,,,,,
1478536463.95,-1.379648,-1.476457,1.104681,0.683156,-0.335698,0.163772,-0.092484,0.995553,-0.017897,0.107880,0.067343,-0.024736,-24.386372,36.126976,-3.858830,,,,,,
1478536463.96,-1.267265,-1.476178,1.227270,1.160798,-1.037471,0.280630,-0.090159,0.995527,-0.028239,0.150965,0.058657,0.038798,-24.331472,36.147648,-4.008840,,,,,,
1478536463.97,-1.136290,-1.475942,1.367582,1.164139,-0.680515,0.480697,-0.085911,0.995505,-0.039870,0.174275,-0.284994,-0.076585,-24.331472,36.147648,-4.008840,,,,,,
1478536463.98,-1.006337,-1.475050,1.498168,1.053453,0.245182,0.468379,-0.080770,0.995420,-0.051142,0.215338,-0.386793,0.043375,-24.150742,36.220657,-4.421497,,,,,,
1478536463.99,-0.891320,-1.471229,1.605427,1.004180,0.909998,0.201342,-0.077326,0.995047,-0.062463,0.099375,-0.113730,0.130274,-24.150742,36.220657,-4.421497,,,,,,
1478536464.00,-0.824483,-1.463437,1.662227,0.877868,0.976822,-0.331438,-0.078671,0.994243,-0.072750,0.093991,-0.012248,0.011349,-23.812757,36.309010,-5.417778,,,,,,
1478536464.01,-0.821206,-1.453096,1.657388,0.518618,0.678775,-0.877365,-0.085954,0.993081,-0.080009,0.120851,-0.026788,-0.041207,-23.812757,36.309010,-5.417778,,,,,,
1478536464.03,-0.867649,-1.445254,1.604328,-0.115377,0.651106,-0.981714,-0.095514,0.992130,-0.080965,0.162652,0.042614,-0.086454,-24.064817,35.973873,-6.442737,,,,,,
1478536464.04,-0.928262,-1.437230,1.533279,-0.168909,0.952049,-1.216914,-0.106613,0.991093,-0.079799,-0.012589,0.452953,-0.030385,-24.064817,35.973873,-6.442737,,,,,,
1478536464.05,-0.971700,-1.425345,1.485037,0.225221,0.242581,-1.272835,-0.119697,0.989441,-0.081731,-0.214485,0.619477,-0.012614,-24.748407,35.445751,-6.771929,,,,,,
1478536464.06,-0.999969,-1.413187,1.456106,0.290759,-0.005335,-1.157323,-0.132072,0.987605,-0.084808,-0.147667,0.201253,0.013489,-24.748407,35.445751,-6.771929,,,,,,
1478536464.07,-1.016271,-1.402777,1.437755,0.288815,0.241282,-0.928488,-0.142171,0.985918,-0.088053,0.016164,0.225996,0.112010,-25.633114,34.756638,-7.047250,,,,,,
1478536464.08,-1.022937,-1.394488,1.427699,0.261975,0.308349,-0.689623,-0.149725,0.984498,-0.091357,-0.069925,0.278640,0.138385,-25.633114,34.756638,-7.047250,,,,,,
1478536464.09,-1.018769,-1.390140,1.429097,0.230212,0.252254,-0.221855,-0.152987,0.983726,-0.094225,-0.143781,0.187340,0.089418,-26.229855,34.237991,-7.382319,,,,,,
1478536464.10,-1.014004,-1.388679,1.433465,0.100287,-0.024526,-0.049808,-0.153756,0.983462,-0.095712,-0.123740,0.113583,0.041360,-26.229855,34.237991,-7.382319,,,,,,
1478536464.11,-1.015151,-1.388659,1.432572,-0.050083,-0.013409,-0.009241,-0.153882,0.983459,-0.095546,-0.038073,0.095261,-0.029134,-26.355980,34.092747,-7.602032,,,,,,
1478536464.12,-1.021512,-1.389024,1.425616,-0.130478,0.071760,-0.047406,-0.154181,0.983525,-0.094378,0.009909,-0.058964,-0.086393,-26.361500,34.091019,-7.590629,,,,,,
1478536464.13,-1.025793,-1.388401,1.418437,-0.038360,0.350083,-0.136626,-0.155107,0.983412,-0.094034,-0.099577,-0.036848,-0.074805,-26.361500,34.091019,-7.590629,,,,,,
1478536464.14,-1.018390,-1.386371,1.418470,0.134027,0.839870,-0.168161,-0.156106,0.983042,-0.096227,-0.157325,0.029654,-0.033488,-26.389893,34.065449,-7.606755,,,,,,
1478536464.15,-0.992702,-1.383302,1.430597,0.433210,1.429778,-0.103892,-0.156109,0.982474,-0.101853,-0.129001,-0.004767,0.023057,-26.389893,34.065449,-7.606755,,,,,,
1478536464.16,-0.963943,-1.381878,1.447797,0.258056,0.992763,0.119264,-0.154265,0.982208,-0.107098,0.035719,-0.002212,0.065212,-26.327835,33.946358,-8.320688,,,,,,
1478536464.17,-0.940148,-1.383153,1.469508,0.268584,0.001296,0.378990,-0.150661,0.982447,-0.109999,0.187862,0.036474,0.040205,-26.327835,33.946358,-8.320688,,,,,,
1478536464.18,-0.915290,-1.385087,1.496186,0.250735,-0.111881,0.441966,-0.146375,0.982805,-0.112552,0.284970,0.085890,-0.103848,-26.068562,33.999031,-8.901665,,,,,,
1478536464.19,-0.891786,-1.387936,1.520963,0.149465,-0.080789,0.495169,-0.141509,0.983328,-0.114202,0.201110,0.032420,0.044011,-26.068562,33.999031,-8.901665,,,,,,
1478536464.20,-0.866227,-1.391179,1.547502,0.166737,-0.029114,0.538699,-0.136114,0.983912,-0.115714,0.013800,0.062505,-0.016137,-25.762226,34.205662,-9.001358,,,,,,
1478536464.21,-0.835859,-1.394294,1.577976,0.196366,0.050021,0.561093,-0.130263,0.984464,-0.117738,-0.133302,0.196933,-0.017012,-25.762226,34.205662,-9.001358,,,,,,
1478536464.23,-0.805515,-1.396739,1.608029,0.204842,0.080389,0.485889,-0.124895,0.984890,-0.119969,-0.138700,0.181339,0.030842,-25.370621,34.465611,-9.121253,,,,,,
1478536464.24,-0.778221,-1.398445,1.634161,0.184951,0.172557,0.394515,-0.120395,0.985184,-0.122135,-0.074994,0.109817,0.037861,-25.370621,34.465611,-9.121253,,,,,,
1478536464.25,-0.752627,-1.399991,1.657484,0.147360,0.271708,0.342014,-0.116188,0.985448,-0.124064,-0.002373,0.043269,0.042827,-25.012653,34.672512,-9.323522,,,,,,
1478536464.26,-0.734046,-1.400837,1.673697,0.108367,0.238977,0.236529,-0.113305,0.985592,-0.125583,0.056420,-0.037761,0.034595,-25.012653,34.672512,-9.323522,,,,,,
1478536464.27,-0.722829,-1.401730,1.684037,0.017925,0.032546,0.161441,-0.111307,0.985742,-0.126186,0.124750,-0.103143,0.014553,-24.736252,34.807976,-9.553347,,,,,,
1478536464.28,-0.723420,-1.403319,1.685085,-0.139137,-0.208993,0.095796,-0.110344,0.986008,-0.124946,0.075371,-0.058244,-0.016152,-24.660398,34.850071,-9.595888,,,,,,
1478536464.29,-0.734853,-1.405391,1.677685,-0.249408,-0.455265,0.038265,-0.110396,0.986352,-0.122160,0.068586,-0.001092,-0.009783,-24.660398,34.850071,-9.595888,,,,,,
1478536464.30,-0.754353,-1.408269,1.664358,-0.375202,-0.655024,0.026330,-0.110812,0.986821,-0.117916,0.059787,0.069636,-0.017201,-24.657362,34.923271,-9.333998,,,,,,
1478536464.31,-0.782233,-1.411789,1.644357,-0.472442,-0.798988,0.017545,-0.111607,0.987385,-0.112316,0.036518,0.164272,-0.028752,-24.657362,34.923271,-9.333998,,,,,,
1478536464.32,-0.814551,-1.415223,1.619888,-0.494446,-0.749104,-0.047390,-0.112711,0.987923,-0.106324,-0.009878,0.220222,-0.017761,-24.770628,35.010662,-8.684081,,,,,,
1478536464.33,-0.852005,-1.417617,1.589299,-0.468659,-0.681280,-0.152412,-0.114833,0.988291,-0.100471,-0.048009,0.163671,0.037955,-24.770628,35.010662,-8.684081,,,,,,
1478536464.34,-0.880280,-1.418903,1.566999,-0.266620,-0.524786,-0.088362,-0.116647,0.988486,-0.096375,-0.014014,0.008538,0.054031,-24.954876,35.055698,-7.943301,,,,,,
1478536464.35,-0.891988,-1.419208,1.556835,-0.092953,-0.031603,-0.081915,-0.117533,0.988533,-0.094813,0.045374,-0.186424,0.067545,-24.954876,35.055698,-7.943301,,,,,,
1478536464.36,-0.896214,-1.418208,1.551039,0.010080,0.162357,-0.131534,-0.118705,0.988381,-0.094933,0.024497,-0.361351,0.113778,-25.084562,35.044083,-7.577672,,,,,,
1478536464.37,-0.899900,-1.417335,1.546368,-0.009021,0.044443,-0.094252,-0.119730,0.988248,-0.095031,-0.013937,-0.209287,0.047821,-25.084562,35.044083,-7.577672,,,,,,
1478536464.38,-0.908436,-1.417916,1.539441,-0.156989,-0.202177,0.008344,-0.120084,0.988337,-0.093652,0.036054,-0.039530,0.024118,-25.152058,34.982922,-7.636315,,,,,,
1478536464.39,-0.916379,-1.419497,1.533225,-0.144504,-0.176701,0.075549,-0.119584,0.988576,-0.091744,-0.011550,-0.020803,-0.018546,-25.152058,34.982922,-7.636315,,,,,,
1478536464.40,-0.919567,-1.420336,1.532307,-0.036777,-0.219157,0.054518,-0.119216,0.988702,-0.090860,-0.134904,0.026740,-0.018118,-25.161663,35.016823,-7.446927,,,,,,
1478536464.41,-0.921576,-1.421584,1.532322,-0.085004,-0.186525,0.109688,-0.118415,0.988889,-0.089874,-0.160195,-0.002911,-0.016464,-25.161663,35.016823,-7.446927,,,,,,
1478536464.42,-0.920253,-1.423013,1.536483,-0.003134,-0.295175,0.147045,-0.117172,0.989100,-0.089175,-0.119248,-0.052256,0.019076,-25.138107,35.066605,-7.290582,,,,,,
1478536464.44,-0.912609,-1.423085,1.548052,0.164333,-0.383935,0.087185,-0.116430,0.989110,-0.090025,-0.123743,-0.078863,-0.024279,-25.105366,35.107254,-7.207295,,,,,,
1478536464.45,-0.903196,-1.421542,1.562591,0.279021,-0.508532,-0.013304,-0.116776,0.988882,-0.092061,-0.072387,-0.026739,-0.017680,-25.105366,35.107254,-7.207295,,,,,,
1478536464.46,-0.890571,-1.419135,1.581867,0.376208,-0.636755,0.009887,-0.117454,0.988522,-0.095025,-0.007012,-0.010830,0.015175,-25.125938,35.109123,-7.126033,,,,,,
1478536464.47,-0.874850,-1.417456,1.605237,0.351923,-0.730566,0.117821,-0.117220,0.988266,-0.097923,0.047228,-0.040650,0.011131,-25.125938,35.109123,-7.126033,,,,,,
1478536464.48,-0.861315,-1.416521,1.627085,0.284067,-0.767022,0.139533,-0.116585,0.988123,-0.100103,0.058495,-0.029856,0.014486,-25.192980,35.077633,-7.043967,,,,,,
1478536464.49,-0.850163,-1.415856,1.646383,0.246010,-0.749889,0.133788,-0.115955,0.988021,-0.101830,-0.012707,-0.007552,-0.011131,-25.192980,35.077633,-7.043967,,,,,,
1478536464.50,-0.841285,-1.415130,1.663360,0.232145,-0.757144,0.104275,-0.115581,0.987909,-0.103334,-0.085011,-0.007074,-0.033767,-25.202320,35.110020,-6.846411,,,,,,
1478536464.51,-0.835995,-1.413761,1.677187,0.238855,-0.813219,0.013334,-0.116036,0.987695,-0.104851,-0.067573,0.009757,-0.046944,-25.202320,35.110020,-6.846411,,,,,,
1478536464.52,-0.836034,-1.411891,1.686347,0.211594,-0.879670,-0.044807,-0.117410,0.987401,-0.106084,-0.027533,0.023707,-0.061900,-25.254908,35.117439,-6.610528,,,,,,
1478536464.53,-0.838110,-1.410899,1.693671,0.121900,-0.869650,0.022410,-0.118359,0.987244,-0.106495,0.023998,0.055069,-0.063793,-25.254908,35.117439,-6.610528,,,,,,
1478536464.54,-0.841975,-1.410252,1.697522,0.077106,-0.671647,-0.025731,-0.119246,0.987140,-0.106463,0.020751,0.079388,-0.071806,-25.386909,35.082928,-6.279880,,,,,,
1478536464.55,-0.847501,-1.409248,1.697315,0.054900,-0.458574,-0.084839,-0.120576,0.986979,-0.106458,-0.064559,0.054906,-0.061038,-25.386909,35.082928,-6.279880,,,,,,
1478536464.56,-0.855224,-1.408298,1.693511,-0.001605,-0.359752,-0.111852,-0.122101,0.986826,-0.106138,-0.049468,0.061697,-0.014528,-25.496307,35.052010,-6.003259,,,,,,
1478536464.57,-0.865494,-1.407668,1.686543,-0.052581,-0.310559,-0.115871,-0.123659,0.986724,-0.105282,0.015230,0.065110,-0.001163,-25.559139,35.022472,-5.907681,,,,,,
1478536464.58,-0.877450,-1.407353,1.677177,-0.106320,-0.239128,-0.115424,-0.125147,0.986673,-0.103994,0.054590,0.058493,-0.009928,-25.559139,35.022472,-5.907681,,,,,,
1478536464.59,-0.889952,-1.407330,1.666390,-0.133579,-0.156525,-0.104947,-0.126455,0.986669,-0.102436,0.071218,0.048838,-0.002590,-25.679848,34.968231,-5.701935,,,,,,
1478536464.60,-0.902273,-1.407535,1.655052,-0.153078,-0.093686,-0.091572,-0.127549,0.986703,-0.100745,0.078400,0.038886,0.012091,-25.679848,34.968231,-5.701935,,,,,,
1478536464.61,-0.913884,-1.407901,1.643955,-0.157199,-0.054298,-0.072673,-0.128424,0.986762,-0.099037,0.082312,0.031793,0.010749,-25.770859,34.929935,-5.523233,,,,,,
1478536464.62,-0.924185,-1.408385,1.633793,-0.149932,-0.017305,-0.054796,-0.129056,0.986840,-0.097421,0.084745,0.020148,0.004175,-25.770859,34.929935,-5.523233,,,,,,
1478536464.64,-0.933129,-1.408940,1.624671,-0.140059,0.011034,-0.035509,-0.129482,0.986930,-0.095937,0.073590,0.007257,0.003072,-25.826038,34.910645,-5.385762,,,,,,
1478536464.65,-0.940437,-1.409482,1.617064,-0.119906,0.018511,-0.027985,-0.129748,0.987017,-0.094673,0.058886,0.000379,0.004066,-25.826038,34.910645,-5.385762,,,,,,
1478536464.66,-0.945966,-1.409716,1.611394,-0.065462,0.004032,-0.031861,-0.130082,0.987055,-0.093818,0.031418,-0.010050,-0.000771,-25.849998,34.906944,-5.294050,,,,,,
1478536464.67,-0.949038,-1.409657,1.608408,-0.018561,-0.014223,-0.033329,-0.130416,0.987045,-0.093452,0.024017,-0.023147,0.001838,-25.849998,34.906944,-5.294050,,,,,,
1478536464.68,-0.949124,-1.409211,1.608647,0.043559,-0.038614,-0.029568,-0.130783,0.986974,-0.093697,0.014923,-0.038762,0.008706,-25.873745,34.896049,-5.249671,,,,,,
1478536464.69,-0.946114,-1.408604,1.612239,0.091706,-0.052091,-0.010249,-0.130986,0.986876,-0.094441,0.001576,-0.040983,0.009587,-25.873745,34.896049,-5.249671,,,,,,
1478536464.70,-0.940116,-1.407787,1.618871,0.139703,-0.050634,-0.002222,-0.131069,0.986743,-0.095701,-0.008900,-0.071094,0.007658,-25.895535,34.877357,-5.266393,,,,,,
1478536464.71,-0.931195,-1.406674,1.628594,0.199259,-0.070134,0.006326,-0.131091,0.986562,-0.097521,-0.024366,-0.070012,0.003436,-25.895535,34.877357,-5.266393,,,,,,
1478536464.72,-0.919670,-1.405327,1.641247,0.246256,-0.097160,0.018499,-0.131015,0.986341,-0.099831,-0.028577,-0.067594,-0.000297,-25.901567,34.860256,-5.349327,,,,,,
1478536464.73,-0.906725,-1.403737,1.655691,0.281926,-0.130344,0.019574,-0.130946,0.986078,-0.102485,-0.026357,-0.062448,-0.002572,-25.901567,34.860256,-5.349327,,,,,,
1478536464.74,-0.892388,-1.401933,1.671746,0.312394,-0.146295,0.026415,-0.130848,0.985776,-0.105468,-0.021190,-0.049116,-0.006837,-25.900705,34.841114,-5.476710,,,,,,
1478536464.75,-0.877678,-1.400076,1.688271,0.317479,-0.148801,0.033890,-0.130691,0.985463,-0.108551,-0.017426,-0.029087,-0.002396,-25.899994,34.829987,-5.550351,,,,,,
1478536464.76,-0.863354,-1.398273,1.704371,0.307338,-0.143966,0.039794,-0.130473,0.985155,-0.111566,-0.003713,-0.004304,0.006403,-25.899994,34.829987,-5.550351,,,,,,
1478536464.77,-0.850246,-1.396669,1.719104,0.271866,-0.131859,0.045210,-0.130187,0.984878,-0.114309,0.005660,0.025376,0.022375,-25.892305,34.811604,-5.699525,,,,,,
1478536464.78,-0.839362,-1.395516,1.731522,0.212457,-0.126119,0.055293,-0.129780,0.984678,-0.116478,0.022556,0.044528,0.037575,-25.892305,34.811604,-5.699525,,,,,,
1478536464.79,-0.830769,-1.394781,1.741625,0.156911,-0.128983,0.061898,-0.129309,0.984549,-0.118077,0.025305,0.057840,0.049901,-25.872568,34.807251,-5.814606,,,,,,
1478536464.80,-0.824953,-1.394416,1.748945,0.100110,-0.134235,0.057487,-0.128883,0.984485,-0.119071,0.025307,0.066876,0.062445,-25.872568,34.807251,-5.814606,,,,,,
1478536464.81,-0.821424,-1.394285,1.753898,0.059603,-0.126928,0.042062,-0.128557,0.984462,-0.119612,0.015626,0.072041,0.065596,-25.845444,34.821831,-5.847829,,,,,,
1478536464.82,-0.819814,-1.394330,1.756724,0.022771,-0.106047,0.032592,-0.128332,0.984470,-0.119789,-0.013193,0.069943,0.056099,-25.845444,34.821831,-5.847829,,,,,,
1478536464.83,-0.819600,-1.394466,1.757903,-0.000171,-0.085052,0.019642,-0.128209,0.984494,-0.119725,-0.028102,0.062167,0.047002,-25.829988,34.838024,-5.819609,,,,,,
1478536464.85,-0.955293,-1.397227,1.625134,-0.011561,-0.083817,0.012092,-0.141006,0.984975,-0.099711,-0.020523,0.049648,0.015376,-25.829988,34.838024,-5.819609,,,,,,
1478536464.86,-0.956690,-1.397417,1.624730,-0.016482,-0.098668,0.009819,-0.140992,0.985007,-0.099406,-0.023925,0.030099,0.002543,-26.286045,34.625553,-4.985888,,,,,,
1478536464.87,-0.958419,-1.397526,1.624191,-0.009986,-0.119593,0.002907,-0.141076,0.985026,-0.099101,-0.028693,0.018544,-0.010809,-26.286045,34.625553,-4.985888,,,,,,
1478536464.88,-0.960287,-1.397655,1.623796,-0.010976,-0.149315,0.007074,-0.141157,0.985048,-0.098764,-0.022600,0.005232,-0.022635,-26.291693,34.631039,-4.917543,,,,,,
1478536464.89,-0.961825,-1.397686,1.624011,0.003114,-0.171453,0.002745,-0.141283,0.985054,-0.098529,-0.021482,-0.004097,-0.030331,-26.291693,34.631039,-4.917543,,,,,,
1478536464.90,-0.962937,-1.397591,1.624803,0.020892,-0.182438,-0.001719,-0.141470,0.985037,-0.098426,-0.018793,-0.011298,-0.030908,-26.303501,34.634586,-4.828568,,,,,,
1478536464.91,-0.963011,-1.397327,1.626648,0.041076,-0.179824,-0.003924,-0.141690,0.984992,-0.098564,-0.014666,-0.012412,-0.034310,-26.312595,34.633789,-4.784545,,,,,,
1478536464.92,-0.962783,-1.396949,1.628724,0.051081,-0.169798,-0.012535,-0.141974,0.984927,-0.098809,-0.011087,-0.008135,-0.037345,-26.312595,34.633789,-4.784545,,,,,,
1478536464.93,-0.962129,-1.396397,1.631120,0.064861,-0.158492,-0.023565,-0.142355,0.984831,-0.099212,-0.000620,-0.002531,-0.038376,-26.335089,34.625702,-4.718883,,,,,,
1478536464.94,-0.961127,-1.395746,1.633651,0.072246,-0.137401,-0.026267,-0.142781,0.984718,-0.099722,0.017323,0.002999,-0.037424,-26.335089,34.625702,-4.718883,,,,,,
1478536464.95,-0.960587,-1.395069,1.635495,0.058136,-0.116292,-0.046450,-0.143273,0.984600,-0.100181,0.033746,0.004719,-0.035729,-30.900330,38.652725,-10.080535,,,,,,
